{
"type": "FeatureCollection",
"name": "gimnasios",
"crs": { "type": "name", "properties": { "name": "urn:ogc:def:crs:OGC:1.3:CRS84" } },
"features": [
{ "type": "Feature", "properties": { "nombre": "SportClub Monte Grande", "direccion_std": "", "plan": "OTRO/NO ESPECIFICADO", "precio": null, "cadena": "SportClub", "color_map": "#003366" }, "geometry": { "type": "Point", "coordinates": [ -58.4636314, -34.8166009, 0.0 ] } },
{ "type": "Feature", "properties": { "nombre": "SportClub Gauss", "direccion_std": "", "plan": "OTRO/NO ESPECIFICADO", "precio": null, "cadena": "SportClub", "color_map": "#003366" }, "geometry": { "type": "Point", "coordinates": [ -64.2507914, -31.3558534, 0.0 ] } },
{ "type": "Feature", "properties": { "nombre": "SportClub Los Berros", "direccion_std": "Mayor Irusta 3000/45 - 1er piso - paseo Los Berros. Bella Vista", "plan": "PLUS", "precio": null, "cadena": "SportClub", "color_map": "#003366" }, "geometry": { "type": "Point", "coordinates": [ -58.6972971, -34.5782103, 0.0 ] } },
{ "type": "Feature", "properties": { "nombre": "SportClub UNO", "direccion_std": "", "plan": "OTRO/NO ESPECIFICADO", "precio": null, "cadena": "SportClub", "color_map": "#003366" }, "geometry": { "type": "Point", "coordinates": [ -57.9388653, -34.9118388, 0.0 ] } },
{ "type": "Feature", "properties": { "nombre": "SportClub Morón", "direccion_std": "", "plan": "OTRO/NO ESPECIFICADO", "precio": null, "cadena": "SportClub", "color_map": "#003366" }, "geometry": { "type": "Point", "coordinates": [ -58.6228044, -34.6509918, 0.0 ] } },
{ "type": "Feature", "properties": { "nombre": "SportClub Mendiolaza", "direccion_std": "", "plan": "OTRO/NO ESPECIFICADO", "precio": null, "cadena": "SportClub", "color_map": "#003366" }, "geometry": { "type": "Point", "coordinates": [ -64.2931546, -31.2586769, 0.0 ] } },
{ "type": "Feature", "properties": { "nombre": "SportClub Mercedes", "direccion_std": "", "plan": "OTRO/NO ESPECIFICADO", "precio": null, "cadena": "SportClub", "color_map": "#003366" }, "geometry": { "type": "Point", "coordinates": [ -59.434223, -34.6540849, 0.0 ] } },
{ "type": "Feature", "properties": { "nombre": "Sportclub Portal Rosario", "direccion_std": "", "plan": "OTRO/NO ESPECIFICADO", "precio": null, "cadena": "SportClub", "color_map": "#003366" }, "geometry": { "type": "Point", "coordinates": [ -60.6833145, -32.9105441, 0.0 ] } },
{ "type": "Feature", "properties": { "nombre": "SportClub Temperley", "direccion_std": "", "plan": "OTRO/NO ESPECIFICADO", "precio": null, "cadena": "SportClub", "color_map": "#003366" }, "geometry": { "type": "Point", "coordinates": [ -58.4008993, -34.7824472, 0.0 ] } },
{ "type": "Feature", "properties": { "nombre": "SportClub Lanús", "direccion_std": "", "plan": "OTRO/NO ESPECIFICADO", "precio": null, "cadena": "SportClub", "color_map": "#003366" }, "geometry": { "type": "Point", "coordinates": [ -58.385919, -34.7107703, 0.0 ] } },
{ "type": "Feature", "properties": { "nombre": "SportClub Villa Luro", "direccion_std": "", "plan": "OTRO/NO ESPECIFICADO", "precio": null, "cadena": "SportClub", "color_map": "#003366" }, "geometry": { "type": "Point", "coordinates": [ -58.5136306, -34.6396211, 0.0 ] } },
{ "type": "Feature", "properties": { "nombre": "SportClub Pinazo", "direccion_std": "", "plan": "OTRO/NO ESPECIFICADO", "precio": null, "cadena": "SportClub", "color_map": "#003366" }, "geometry": { "type": "Point", "coordinates": [ -58.8250244, -34.4328824, 0.0 ] } },
{ "type": "Feature", "properties": { "nombre": "SportClub San Albano", "direccion_std": "", "plan": "OTRO/NO ESPECIFICADO", "precio": null, "cadena": "SportClub", "color_map": "#003366" }, "geometry": { "type": "Point", "coordinates": [ -58.3880919, -34.8413153, 0.0 ] } },
{ "type": "Feature", "properties": { "nombre": "SportClub San Andres", "direccion_std": "", "plan": "OTRO/NO ESPECIFICADO", "precio": null, "cadena": "SportClub", "color_map": "#003366" }, "geometry": { "type": "Point", "coordinates": [ -58.689684, -34.382561, 0.0 ] } },
{ "type": "Feature", "properties": { "nombre": "SportClub MDQ Centro", "direccion_std": "", "plan": "OTRO/NO ESPECIFICADO", "precio": null, "cadena": "SportClub", "color_map": "#003366" }, "geometry": { "type": "Point", "coordinates": [ -57.5506443, -37.9966226, 0.0 ] } },
{ "type": "Feature", "properties": { "nombre": "SportClub Retiro", "direccion_std": "", "plan": "OTRO/NO ESPECIFICADO", "precio": null, "cadena": "SportClub", "color_map": "#003366" }, "geometry": { "type": "Point", "coordinates": [ -58.3715291, -34.594766, 0.0 ] } },
{ "type": "Feature", "properties": { "nombre": "SportClub La Barraca", "direccion_std": "", "plan": "OTRO/NO ESPECIFICADO", "precio": null, "cadena": "SportClub", "color_map": "#003366" }, "geometry": { "type": "Point", "coordinates": [ -58.3731563, -34.6391247, 0.0 ] } },
{ "type": "Feature", "properties": { "nombre": "SportClub Devoto", "direccion_std": "", "plan": "OTRO/NO ESPECIFICADO", "precio": null, "cadena": "SportClub", "color_map": "#003366" }, "geometry": { "type": "Point", "coordinates": [ -58.5112443, -34.5925575, 0.0 ] } },
{ "type": "Feature", "properties": { "nombre": "Sportclub Balvanera", "direccion_std": "", "plan": "OTRO/NO ESPECIFICADO", "precio": null, "cadena": "SportClub", "color_map": "#003366" }, "geometry": { "type": "Point", "coordinates": [ -58.3987999, -34.6174871, 0.0 ] } },
{ "type": "Feature", "properties": { "nombre": "SportClub Rivadavia", "direccion_std": "", "plan": "OTRO/NO ESPECIFICADO", "precio": null, "cadena": "SportClub", "color_map": "#003366" }, "geometry": { "type": "Point", "coordinates": [ -68.5677015, -31.5378995, 0.0 ] } },
{ "type": "Feature", "properties": { "nombre": "SportClub Zárate", "direccion_std": "", "plan": "OTRO/NO ESPECIFICADO", "precio": null, "cadena": "SportClub", "color_map": "#003366" }, "geometry": { "type": "Point", "coordinates": [ -59.0061031, -34.1055967, 0.0 ] } },
{ "type": "Feature", "properties": { "nombre": "Hotel Marcin", "direccion_std": "", "plan": "OTRO/NO ESPECIFICADO", "precio": null, "cadena": "SportClub", "color_map": "#003366" }, "geometry": { "type": "Point", "coordinates": [ -56.893328, -37.1651732, 0.0 ] } },
{ "type": "Feature", "properties": { "nombre": "SportClub La Barda Vaca Muerta\n", "direccion_std": "", "plan": "OTRO/NO ESPECIFICADO", "precio": null, "cadena": "SportClub", "color_map": "#003366" }, "geometry": { "type": "Point", "coordinates": [ -68.8257031, -38.3525875, 0.0 ] } },
{ "type": "Feature", "properties": { "nombre": "SportClub Pacheco", "direccion_std": "", "plan": "OTRO/NO ESPECIFICADO", "precio": null, "cadena": "SportClub", "color_map": "#003366" }, "geometry": { "type": "Point", "coordinates": [ -58.6244589, -34.4676799, 0.0 ] } },
{ "type": "Feature", "properties": { "nombre": "SportClub Villa Pueyrredón", "direccion_std": "", "plan": "OTRO/NO ESPECIFICADO", "precio": null, "cadena": "SportClub", "color_map": "#003366" }, "geometry": { "type": "Point", "coordinates": [ -58.4990665, -34.5909416, 0.0 ] } },
{ "type": "Feature", "properties": { "nombre": "SportClub Berlín", "direccion_std": "", "plan": "OTRO/NO ESPECIFICADO", "precio": null, "cadena": "SportClub", "color_map": "#003366" }, "geometry": { "type": "Point", "coordinates": [ -57.9896271, -34.9182779, 0.0 ] } },
{ "type": "Feature", "properties": { "nombre": "SportClub Bahia", "direccion_std": "", "plan": "OTRO/NO ESPECIFICADO", "precio": null, "cadena": "SportClub", "color_map": "#003366" }, "geometry": { "type": "Point", "coordinates": [ -62.226883, -38.684749, 0.0 ] } },
{ "type": "Feature", "properties": { "nombre": "SportClub Barrio Martín", "direccion_std": "", "plan": "OTRO/NO ESPECIFICADO", "precio": null, "cadena": "SportClub", "color_map": "#003366" }, "geometry": { "type": "Point", "coordinates": [ -60.6351092, -32.9557626, 0.0 ] } },
{ "type": "Feature", "properties": { "nombre": "SportClub CAE Paraná", "direccion_std": "", "plan": "OTRO/NO ESPECIFICADO", "precio": null, "cadena": "SportClub", "color_map": "#003366" }, "geometry": { "type": "Point", "coordinates": [ -60.5386676, -31.7193115, 0.0 ] } },
{ "type": "Feature", "properties": { "nombre": "SportClub Luján", "direccion_std": "", "plan": "OTRO/NO ESPECIFICADO", "precio": null, "cadena": "SportClub", "color_map": "#003366" }, "geometry": { "type": "Point", "coordinates": [ -59.104413, -34.56871, 0.0 ] } },
{ "type": "Feature", "properties": { "nombre": "SportClub DelTurista", "direccion_std": "", "plan": "OTRO/NO ESPECIFICADO", "precio": null, "cadena": "SportClub", "color_map": "#003366" }, "geometry": { "type": "Point", "coordinates": [ -71.3062962, -41.1340406, 0.0 ] } },
{ "type": "Feature", "properties": { "nombre": "SportClub Quartier", "direccion_std": "", "plan": "OTRO/NO ESPECIFICADO", "precio": null, "cadena": "SportClub", "color_map": "#003366" }, "geometry": { "type": "Point", "coordinates": [ -58.3730513, -34.5826254, 0.0 ] } },
{ "type": "Feature", "properties": { "nombre": "SportClub Rawson", "direccion_std": "", "plan": "OTRO/NO ESPECIFICADO", "precio": null, "cadena": "SportClub", "color_map": "#003366" }, "geometry": { "type": "Point", "coordinates": [ -68.5350318, -31.5835815, 0.0 ] } },
{ "type": "Feature", "properties": { "nombre": "SportClub Tandil\n", "direccion_std": "", "plan": "OTRO/NO ESPECIFICADO", "precio": null, "cadena": "SportClub", "color_map": "#003366" }, "geometry": { "type": "Point", "coordinates": [ -59.1289013, -37.3275575, 0.0 ] } },
{ "type": "Feature", "properties": { "nombre": "SportClub Banco Nación", "direccion_std": "", "plan": "OTRO/NO ESPECIFICADO", "precio": null, "cadena": "SportClub", "color_map": "#003366" }, "geometry": { "type": "Point", "coordinates": [ -58.4718351, -34.5365469, 0.0 ] } },
{ "type": "Feature", "properties": { "nombre": "SportClub Pileta Bomberitos", "direccion_std": "", "plan": "OTRO/NO ESPECIFICADO", "precio": null, "cadena": "SportClub", "color_map": "#003366" }, "geometry": { "type": "Point", "coordinates": [ -58.5508497, -34.6513913, 0.0 ] } },
{ "type": "Feature", "properties": { "nombre": "SportClub Distrito Q", "direccion_std": "", "plan": "OTRO/NO ESPECIFICADO", "precio": null, "cadena": "SportClub", "color_map": "#003366" }, "geometry": { "type": "Point", "coordinates": [ -58.2433286, -34.7293827, 0.0 ] } },
{ "type": "Feature", "properties": { "nombre": "SportClub Maschwitz\n", "direccion_std": "", "plan": "FAMILIA SC", "precio": null, "cadena": "SportClub", "color_map": "#003366" }, "geometry": { "type": "Point", "coordinates": [ -58.7651094, -34.3893125, 0.0 ] } },
{ "type": "Feature", "properties": { "nombre": "SportClub Tuluka Palermo", "direccion_std": "", "plan": "OTRO/NO ESPECIFICADO", "precio": null, "cadena": "SportClub", "color_map": "#003366" }, "geometry": { "type": "Point", "coordinates": [ -58.4400953, -34.5812853, 0.0 ] } },
{ "type": "Feature", "properties": { "nombre": "SportClub Vertiz\n", "direccion_std": "", "plan": "OTRO/NO ESPECIFICADO", "precio": null, "cadena": "SportClub", "color_map": "#003366" }, "geometry": { "type": "Point", "coordinates": [ -58.4791631, -34.5879001, 0.0 ] } },
{ "type": "Feature", "properties": { "nombre": "SportClub Pinamar", "direccion_std": "", "plan": "OTRO/NO ESPECIFICADO", "precio": null, "cadena": "SportClub", "color_map": "#003366" }, "geometry": { "type": "Point", "coordinates": [ -56.8607055, -37.1145662, 0.0 ] } },
{ "type": "Feature", "properties": { "nombre": "Familia SportClub EverFit Nuñez\n", "direccion_std": "", "plan": "FAMILIA SC", "precio": null, "cadena": "SportClub", "color_map": "#003366" }, "geometry": { "type": "Point", "coordinates": [ -58.4722977, -34.5441258, 0.0 ] } },
{ "type": "Feature", "properties": { "nombre": "SportClub Chacras", "direccion_std": "", "plan": "OTRO/NO ESPECIFICADO", "precio": null, "cadena": "SportClub", "color_map": "#003366" }, "geometry": { "type": "Point", "coordinates": [ -68.8867776, -33.0049399, 0.0 ] } },
{ "type": "Feature", "properties": { "nombre": "SportClub Thays\n", "direccion_std": "", "plan": "OTRO/NO ESPECIFICADO", "precio": null, "cadena": "SportClub", "color_map": "#003366" }, "geometry": { "type": "Point", "coordinates": [ -58.6946176, -34.6251125, 0.0 ] } },
{ "type": "Feature", "properties": { "nombre": "SportClub Pergamino", "direccion_std": "", "plan": "OTRO/NO ESPECIFICADO", "precio": null, "cadena": "SportClub", "color_map": "#003366" }, "geometry": { "type": "Point", "coordinates": [ -60.5617593, -33.8968177, 0.0 ] } },
{ "type": "Feature", "properties": { "nombre": "SportClub Catedral", "direccion_std": "", "plan": "OTRO/NO ESPECIFICADO", "precio": null, "cadena": "SportClub", "color_map": "#003366" }, "geometry": { "type": "Point", "coordinates": [ -71.4410711, -41.1662096, 0.0 ] } },
{ "type": "Feature", "properties": { "nombre": "SportClub Catedral", "direccion_std": "", "plan": "OTRO/NO ESPECIFICADO", "precio": null, "cadena": "SportClub", "color_map": "#003366" }, "geometry": { "type": "Point", "coordinates": [ -71.4385701, -41.1591847, 0.0 ] } },
{ "type": "Feature", "properties": { "nombre": "SportClub Corrientes", "direccion_std": "", "plan": "OTRO/NO ESPECIFICADO", "precio": null, "cadena": "SportClub", "color_map": "#003366" }, "geometry": { "type": "Point", "coordinates": [ -58.8401669, -27.4658003, 0.0 ] } },
{ "type": "Feature", "properties": { "nombre": "SportClub Tronador", "direccion_std": "", "plan": "OTRO/NO ESPECIFICADO", "precio": null, "cadena": "SportClub", "color_map": "#003366" }, "geometry": { "type": "Point", "coordinates": [ -58.4656759, -34.5834569, 0.0 ] } },
{ "type": "Feature", "properties": { "nombre": "SportClub Platense", "direccion_std": "", "plan": "OTRO/NO ESPECIFICADO", "precio": null, "cadena": "SportClub", "color_map": "#003366" }, "geometry": { "type": "Point", "coordinates": [ -58.4818399, -34.5410069, 0.0 ] } },
{ "type": "Feature", "properties": { "nombre": "SportClub Pampa Rodríguez", "direccion_std": "", "plan": "OTRO/NO ESPECIFICADO", "precio": null, "cadena": "SportClub", "color_map": "#003366" }, "geometry": { "type": "Point", "coordinates": [ -58.945385, -34.587616, 0.0 ] } },
{ "type": "Feature", "properties": { "nombre": "SportClub Muñiz", "direccion_std": "", "plan": "OTRO/NO ESPECIFICADO", "precio": null, "cadena": "SportClub", "color_map": "#003366" }, "geometry": { "type": "Point", "coordinates": [ -58.6992731, -34.5443678, 0.0 ] } },
{ "type": "Feature", "properties": { "nombre": "SportClub Almirante Brown", "direccion_std": "", "plan": "OTRO/NO ESPECIFICADO", "precio": null, "cadena": "SportClub", "color_map": "#003366" }, "geometry": { "type": "Point", "coordinates": [ -58.5581937, -34.6789223, 0.0 ] } },
{ "type": "Feature", "properties": { "nombre": "SportClub Bomberitos", "direccion_std": "", "plan": "OTRO/NO ESPECIFICADO", "precio": null, "cadena": "SportClub", "color_map": "#003366" }, "geometry": { "type": "Point", "coordinates": [ -58.5507714, -34.6513659, 0.0 ] } },
{ "type": "Feature", "properties": { "nombre": "SportClub Bernal", "direccion_std": "", "plan": "OTRO/NO ESPECIFICADO", "precio": null, "cadena": "SportClub", "color_map": "#003366" }, "geometry": { "type": "Point", "coordinates": [ -58.284629, -34.7132055, 0.0 ] } },
{ "type": "Feature", "properties": { "nombre": "SportClub Argentinos Juniors", "direccion_std": "", "plan": "OTRO/NO ESPECIFICADO", "precio": null, "cadena": "SportClub", "color_map": "#003366" }, "geometry": { "type": "Point", "coordinates": [ -58.4698688, -34.591934, 0.0 ] } },
{ "type": "Feature", "properties": { "nombre": "SportClub Independiente", "direccion_std": "", "plan": "OTRO/NO ESPECIFICADO", "precio": null, "cadena": "SportClub", "color_map": "#003366" }, "geometry": { "type": "Point", "coordinates": [ -58.3679584, -34.6598519, 0.0 ] } },
{ "type": "Feature", "properties": { "nombre": "SportClub Juan B Justo", "direccion_std": "", "plan": "OTRO/NO ESPECIFICADO", "precio": null, "cadena": "SportClub", "color_map": "#003366" }, "geometry": { "type": "Point", "coordinates": [ -58.4664341, -34.6093436, 0.0 ] } },
{ "type": "Feature", "properties": { "nombre": "SportClub Chango Mas Talleres", "direccion_std": "", "plan": "OTRO/NO ESPECIFICADO", "precio": null, "cadena": "SportClub", "color_map": "#003366" }, "geometry": { "type": "Point", "coordinates": [ -64.1582695, -31.3916663, 0.0 ] } },
{ "type": "Feature", "properties": { "nombre": "SportClub Jumbo Almagro", "direccion_std": "", "plan": "OTRO/NO ESPECIFICADO", "precio": null, "cadena": "SportClub", "color_map": "#003366" }, "geometry": { "type": "Point", "coordinates": [ -58.4289507, -34.6000449, 0.0 ] } },
{ "type": "Feature", "properties": { "nombre": "SportClub Boca Center", "direccion_std": "", "plan": "OTRO/NO ESPECIFICADO", "precio": null, "cadena": "SportClub", "color_map": "#003366" }, "geometry": { "type": "Point", "coordinates": [ -58.8560625, -27.4805625, 0.0 ] } },
{ "type": "Feature", "properties": { "nombre": "SportClub Huracán De Carlos Casares\n", "direccion_std": "", "plan": "OTRO/NO ESPECIFICADO", "precio": null, "cadena": "SportClub", "color_map": "#003366" }, "geometry": { "type": "Point", "coordinates": [ -61.3505185, -35.6171986, 0.0 ] } },
{ "type": "Feature", "properties": { "nombre": "SportClub Paseo Hermitage", "direccion_std": "", "plan": "OTRO/NO ESPECIFICADO", "precio": null, "cadena": "SportClub", "color_map": "#003366" }, "geometry": { "type": "Point", "coordinates": [ -57.539413, -38.007642, 0.0 ] } },
{ "type": "Feature", "properties": { "nombre": "SportClub ACA Flores", "direccion_std": "", "plan": "OTRO/NO ESPECIFICADO", "precio": null, "cadena": "SportClub", "color_map": "#003366" }, "geometry": { "type": "Point", "coordinates": [ -58.472037, -34.6320004, 0.0 ] } },
{ "type": "Feature", "properties": { "nombre": "SportClub Quilmes Oeste", "direccion_std": "", "plan": "OTRO/NO ESPECIFICADO", "precio": null, "cadena": "SportClub", "color_map": "#003366" }, "geometry": { "type": "Point", "coordinates": [ -58.2957337, -34.7331822, 0.0 ] } },
{ "type": "Feature", "properties": { "nombre": "Familia SportClub Crew Pilar\n", "direccion_std": "", "plan": "FAMILIA SC", "precio": null, "cadena": "SportClub", "color_map": "#003366" }, "geometry": { "type": "Point", "coordinates": [ -58.9120281, -34.4602965, 0.0 ] } },
{ "type": "Feature", "properties": { "nombre": "Familia SportClub Jet Training\n", "direccion_std": "nan", "plan": "FAMILIA SC", "precio": null, "cadena": "SportClub", "color_map": "#003366" }, "geometry": { "type": "Point", "coordinates": [ -60.4735372, -34.6322643, 0.0 ] } },
{ "type": "Feature", "properties": { "nombre": "Familia SportClub Mamba Fitness Club\n", "direccion_std": "nan", "plan": "FAMILIA SC", "precio": null, "cadena": "SportClub", "color_map": "#003366" }, "geometry": { "type": "Point", "coordinates": [ -60.6366629, -32.952957, 0.0 ] } },
{ "type": "Feature", "properties": { "nombre": "Familia SportClub Magnus Fitness\n", "direccion_std": "nan", "plan": "FAMILIA SC", "precio": null, "cadena": "SportClub", "color_map": "#003366" }, "geometry": { "type": "Point", "coordinates": [ -58.9838691, -27.4483861, 0.0 ] } },
{ "type": "Feature", "properties": { "nombre": "Familia SportClub Vida fitness Gym\n", "direccion_std": "nan", "plan": "FAMILIA SC", "precio": null, "cadena": "SportClub", "color_map": "#003366" }, "geometry": { "type": "Point", "coordinates": [ -55.1211223, -27.4927719, 0.0 ] } },
{ "type": "Feature", "properties": { "nombre": "Familia SportClub Planeta Fitness\n", "direccion_std": "nan", "plan": "FAMILIA SC", "precio": null, "cadena": "SportClub", "color_map": "#003366" }, "geometry": { "type": "Point", "coordinates": [ -68.7541872, -32.9515867, 0.0 ] } },
{ "type": "Feature", "properties": { "nombre": "Familia SportClub Bunge Lecorp Ramos Mejía\n", "direccion_std": "nan", "plan": "FAMILIA SC", "precio": null, "cadena": "SportClub", "color_map": "#003366" }, "geometry": { "type": "Point", "coordinates": [ -58.5648588, -34.6438827, 0.0 ] } },
{ "type": "Feature", "properties": { "nombre": "Familia SportClub New Line\n", "direccion_std": "nan", "plan": "FAMILIA SC", "precio": null, "cadena": "SportClub", "color_map": "#003366" }, "geometry": { "type": "Point", "coordinates": [ -68.8775168, -33.0345875, 0.0 ] } },
{ "type": "Feature", "properties": { "nombre": "Familia SportClub World Padel Center Hollywood\n", "direccion_std": "nan", "plan": "FAMILIA SC", "precio": null, "cadena": "SportClub", "color_map": "#003366" }, "geometry": { "type": "Point", "coordinates": [ -58.4391547, -34.5790147, 0.0 ] } },
{ "type": "Feature", "properties": { "nombre": "Familia SportClub Central de Box\n", "direccion_std": "nan", "plan": "FAMILIA SC", "precio": null, "cadena": "SportClub", "color_map": "#003366" }, "geometry": { "type": "Point", "coordinates": [ -58.3866011, -34.6045466, 0.0 ] } },
{ "type": "Feature", "properties": { "nombre": "Familia SportClub Olimpo Pinamar\n", "direccion_std": "nan", "plan": "FAMILIA SC", "precio": null, "cadena": "SportClub", "color_map": "#003366" }, "geometry": { "type": "Point", "coordinates": [ -56.8635732, -37.1130469, 0.0 ] } },
{ "type": "Feature", "properties": { "nombre": "Familia SportClub 538 GYM\n", "direccion_std": "nan", "plan": "FAMILIA SC", "precio": null, "cadena": "SportClub", "color_map": "#003366" }, "geometry": { "type": "Point", "coordinates": [ -58.1370924, -32.2201938, 0.0 ] } },
{ "type": "Feature", "properties": { "nombre": "Familia SportClub Drex Gym\n", "direccion_std": "nan", "plan": "FAMILIA SC", "precio": null, "cadena": "SportClub", "color_map": "#003366" }, "geometry": { "type": "Point", "coordinates": [ -64.2643065, -27.7845458, 0.0 ] } },
{ "type": "Feature", "properties": { "nombre": "Familia SportClub Manantial OHiggins Cordoba\n", "direccion_std": "nan", "plan": "FAMILIA SC", "precio": null, "cadena": "SportClub", "color_map": "#003366" }, "geometry": { "type": "Point", "coordinates": [ -64.169516, -31.4485748, 0.0 ] } },
{ "type": "Feature", "properties": { "nombre": "Familia SportClub New Row Gym\n", "direccion_std": "nan", "plan": "FAMILIA SC", "precio": null, "cadena": "SportClub", "color_map": "#003366" }, "geometry": { "type": "Point", "coordinates": [ -60.6954368, -31.6120869, 0.0 ] } },
{ "type": "Feature", "properties": { "nombre": "Familia SportClub Evolution Sport Tristan Suarez\n", "direccion_std": "nan", "plan": "FAMILIA SC", "precio": null, "cadena": "SportClub", "color_map": "#003366" }, "geometry": { "type": "Point", "coordinates": [ -58.5668787, -34.8893901, 0.0 ] } },
{ "type": "Feature", "properties": { "nombre": "Familia SportClub Forever Dance\n", "direccion_std": "nan", "plan": "FAMILIA SC", "precio": null, "cadena": "SportClub", "color_map": "#003366" }, "geometry": { "type": "Point", "coordinates": [ -58.7062694, -34.5365167, 0.0 ] } },
{ "type": "Feature", "properties": { "nombre": "Familia SportClub Deluxe Box\n", "direccion_std": "nan", "plan": "FAMILIA SC", "precio": null, "cadena": "SportClub", "color_map": "#003366" }, "geometry": { "type": "Point", "coordinates": [ -68.8254174, -32.8892061, 0.0 ] } },
{ "type": "Feature", "properties": { "nombre": "Familia SportClub Pro Training\n", "direccion_std": "nan", "plan": "FAMILIA SC", "precio": null, "cadena": "SportClub", "color_map": "#003366" }, "geometry": { "type": "Point", "coordinates": [ -58.5357328, -34.5795783, 0.0 ] } },
{ "type": "Feature", "properties": { "nombre": "Familia SportClub Wellness Junin\n", "direccion_std": "nan", "plan": "FAMILIA SC", "precio": null, "cadena": "SportClub", "color_map": "#003366" }, "geometry": { "type": "Point", "coordinates": [ -60.9519217, -34.5873892, 0.0 ] } },
{ "type": "Feature", "properties": { "nombre": "Familia SportClub Mde Salud y Deporte\n", "direccion_std": "nan", "plan": "FAMILIA SC", "precio": null, "cadena": "SportClub", "color_map": "#003366" }, "geometry": { "type": "Point", "coordinates": [ -60.8046586, -37.5478084, 0.0 ] } },
{ "type": "Feature", "properties": { "nombre": "Familia SportClub Clinch House Palermo\n", "direccion_std": "nan", "plan": "FAMILIA SC", "precio": null, "cadena": "SportClub", "color_map": "#003366" }, "geometry": { "type": "Point", "coordinates": [ -58.4295081, -34.5942274, 0.0 ] } },
{ "type": "Feature", "properties": { "nombre": "Familia SportClub Paihuen Co Ituzaingo\n", "direccion_std": "nan", "plan": "FAMILIA SC", "precio": null, "cadena": "SportClub", "color_map": "#003366" }, "geometry": { "type": "Point", "coordinates": [ -58.6849383, -34.6609393, 0.0 ] } },
{ "type": "Feature", "properties": { "nombre": "Familia SportClub Siempre Fuerza Villa Maria\n", "direccion_std": "nan", "plan": "FAMILIA SC", "precio": null, "cadena": "SportClub", "color_map": "#003366" }, "geometry": { "type": "Point", "coordinates": [ -63.2583296, -32.392327, 0.0 ] } },
{ "type": "Feature", "properties": { "nombre": "Familia SportClub Warriors Campana\n", "direccion_std": "nan", "plan": "FAMILIA SC", "precio": null, "cadena": "SportClub", "color_map": "#003366" }, "geometry": { "type": "Point", "coordinates": [ -58.9656726, -34.1699582, 0.0 ] } },
{ "type": "Feature", "properties": { "nombre": "Familia SportClub Alternativa Gym\n", "direccion_std": "nan", "plan": "FAMILIA SC", "precio": null, "cadena": "SportClub", "color_map": "#003366" }, "geometry": { "type": "Point", "coordinates": [ -65.0262853, -42.7778224, 0.0 ] } },
{ "type": "Feature", "properties": { "nombre": "Familia SportClub Manantial Rodriguez Del Busto\n", "direccion_std": "nan", "plan": "FAMILIA SC", "precio": null, "cadena": "SportClub", "color_map": "#003366" }, "geometry": { "type": "Point", "coordinates": [ -64.2192371, -31.362094, 0.0 ] } },
{ "type": "Feature", "properties": { "nombre": "Familia SportClub Training Club Sierras Bayas\n", "direccion_std": "nan", "plan": "FAMILIA SC", "precio": null, "cadena": "SportClub", "color_map": "#003366" }, "geometry": { "type": "Point", "coordinates": [ -60.1565446, -36.937575, 0.0 ] } },
{ "type": "Feature", "properties": { "nombre": "Club Complejo Recreo Aires de Proa Delta Tigre\n", "direccion_std": "nan", "plan": "OTRO/NO ESPECIFICADO", "precio": null, "cadena": "SportClub", "color_map": "#003366" }, "geometry": { "type": "Point", "coordinates": [ -58.5925153, -34.3905361, 0.0 ] } },
{ "type": "Feature", "properties": { "nombre": "CLUB Rugby Pucará\n", "direccion_std": "nan", "plan": "OTRO/NO ESPECIFICADO", "precio": null, "cadena": "SportClub", "color_map": "#003366" }, "geometry": { "type": "Point", "coordinates": [ -58.3945107, -34.8400613, 0.0 ] } },
{ "type": "Feature", "properties": { "nombre": "Familia SportClub Habitus Fitness Rosario", "direccion_std": "nan", "plan": "FAMILIA SC", "precio": null, "cadena": "SportClub", "color_map": "#003366" }, "geometry": { "type": "Point", "coordinates": [ -60.6645188, -32.9367423, 0.0 ] } },
{ "type": "Feature", "properties": { "nombre": "CLUB Del Sur Rugby y Hockey\n", "direccion_std": "nan", "plan": "OTRO/NO ESPECIFICADO", "precio": null, "cadena": "SportClub", "color_map": "#003366" }, "geometry": { "type": "Point", "coordinates": [ -58.5044903, -34.7254314, 0.0 ] } },
{ "type": "Feature", "properties": { "nombre": "CLUB Biología MDQ\n", "direccion_std": "nan", "plan": "OTRO/NO ESPECIFICADO", "precio": null, "cadena": "SportClub", "color_map": "#003366" }, "geometry": { "type": "Point", "coordinates": [ -57.5318055, -38.0264987, 0.0 ] } },
{ "type": "Feature", "properties": { "nombre": "CLUB Sportivo Escobar", "direccion_std": "nan", "plan": "FAMILIA SC", "precio": null, "cadena": "SportClub", "color_map": "#003366" }, "geometry": { "type": "Point", "coordinates": [ -58.7911372, -34.3557137, 0.0 ] } },
{ "type": "Feature", "properties": { "nombre": "CLUB Quilmes Atlético", "direccion_std": "nan", "plan": "OTRO/NO ESPECIFICADO", "precio": null, "cadena": "SportClub", "color_map": "#003366" }, "geometry": { "type": "Point", "coordinates": [ -58.2471355, -34.7266079, 0.0 ] } },
{ "type": "Feature", "properties": { "nombre": "CLUB Atlético Argentino de Merlo", "direccion_std": "nan", "plan": "OTRO/NO ESPECIFICADO", "precio": null, "cadena": "SportClub", "color_map": "#003366" }, "geometry": { "type": "Point", "coordinates": [ -58.7308479, -34.6460353, 0.0 ] } },
{ "type": "Feature", "properties": { "nombre": "CLUB Monte Grande Rugby Club", "direccion_std": "nan", "plan": "OTRO/NO ESPECIFICADO", "precio": null, "cadena": "SportClub", "color_map": "#003366" }, "geometry": { "type": "Point", "coordinates": [ -58.4914169, -34.8506927, 0.0 ] } },
{ "type": "Feature", "properties": { "nombre": "Familia SportClub Fitship Quorum Córdoba", "direccion_std": "nan", "plan": "FAMILIA SC", "precio": null, "cadena": "SportClub", "color_map": "#003366" }, "geometry": { "type": "Point", "coordinates": [ -64.20839, -31.3429974, 0.0 ] } },
{ "type": "Feature", "properties": { "nombre": "Familia SportClub Gym Lecorp\n", "direccion_std": "nan", "plan": "FAMILIA SC", "precio": null, "cadena": "SportClub", "color_map": "#003366" }, "geometry": { "type": "Point", "coordinates": [ -58.5628314, -34.6542447, 0.0 ] } },
{ "type": "Feature", "properties": { "nombre": "CLUB Comodoro Rugby\n", "direccion_std": "nan", "plan": "OTRO/NO ESPECIFICADO", "precio": null, "cadena": "SportClub", "color_map": "#003366" }, "geometry": { "type": "Point", "coordinates": [ -67.501583, -45.867631, 0.0 ] } },
{ "type": "Feature", "properties": { "nombre": "Familia SportClub Tower Fitness Club Quilmes", "direccion_std": "nan", "plan": "FAMILIA SC", "precio": null, "cadena": "SportClub", "color_map": "#003366" }, "geometry": { "type": "Point", "coordinates": [ -58.2613628, -35.0866121, 0.0 ] } },
{ "type": "Feature", "properties": { "nombre": "CLUB Premium Apa Center\n", "direccion_std": "nan", "plan": "OTRO/NO ESPECIFICADO", "precio": null, "cadena": "SportClub", "color_map": "#003366" }, "geometry": { "type": "Point", "coordinates": [ -58.691941, -34.4658478, 0.0 ] } },
{ "type": "Feature", "properties": { "nombre": "Familia SportClub Kafer CF Rosario", "direccion_std": "nan", "plan": "FAMILIA SC", "precio": null, "cadena": "SportClub", "color_map": "#003366" }, "geometry": { "type": "Point", "coordinates": [ -60.6448424, -32.9808929, 0.0 ] } },
{ "type": "Feature", "properties": { "nombre": "Familia SportClub Oram Gym General Álvear Mendoza", "direccion_std": "nan", "plan": "FAMILIA SC", "precio": null, "cadena": "SportClub", "color_map": "#003366" }, "geometry": { "type": "Point", "coordinates": [ -67.6885726, -34.9800593, 0.0 ] } },
{ "type": "Feature", "properties": { "nombre": "CLUB Centro de Cazadores Posadas", "direccion_std": "nan", "plan": "OTRO/NO ESPECIFICADO", "precio": null, "cadena": "SportClub", "color_map": "#003366" }, "geometry": { "type": "Point", "coordinates": [ -55.93063, -27.4223597, 0.0 ] } },
{ "type": "Feature", "properties": { "nombre": "Familia World Padel Center Nordelta", "direccion_std": "nan", "plan": "FAMILIA SC", "precio": null, "cadena": "SportClub", "color_map": "#003366" }, "geometry": { "type": "Point", "coordinates": [ -58.654331, -34.4294432, 0.0 ] } },
{ "type": "Feature", "properties": { "nombre": "CLUB Rosario Central Sede Gigante de Arroyito", "direccion_std": "nan", "plan": "OTRO/NO ESPECIFICADO", "precio": null, "cadena": "SportClub", "color_map": "#003366" }, "geometry": { "type": "Point", "coordinates": [ -60.6741857, -32.9140452, 0.0 ] } },
{ "type": "Feature", "properties": { "nombre": "CLUB San Luis La Plata", "direccion_std": "nan", "plan": "OTRO/NO ESPECIFICADO", "precio": null, "cadena": "SportClub", "color_map": "#003366" }, "geometry": { "type": "Point", "coordinates": [ -58.0038984, -34.9104248, 0.0 ] } },
{ "type": "Feature", "properties": { "nombre": "Familia SportClub White Lion Castelar", "direccion_std": "nan", "plan": "FAMILIA SC", "precio": null, "cadena": "SportClub", "color_map": "#003366" }, "geometry": { "type": "Point", "coordinates": [ -58.6481058, -34.6500327, 0.0 ] } },
{ "type": "Feature", "properties": { "nombre": "CLUB Carlos Paz Rugby", "direccion_std": "nan", "plan": "OTRO/NO ESPECIFICADO", "precio": null, "cadena": "SportClub", "color_map": "#003366" }, "geometry": { "type": "Point", "coordinates": [ -64.4779849, -31.3986354, 0.0 ] } },
{ "type": "Feature", "properties": { "nombre": "CLUB ADEO Cañada de Gómez", "direccion_std": "nan", "plan": "OTRO/NO ESPECIFICADO", "precio": null, "cadena": "SportClub", "color_map": "#003366" }, "geometry": { "type": "Point", "coordinates": [ -61.38184, -32.8212093, 0.0 ] } },
{ "type": "Feature", "properties": { "nombre": "Familia SportClub Vice Fitness Hurlingham", "direccion_std": "nan", "plan": "FAMILIA SC", "precio": null, "cadena": "SportClub", "color_map": "#003366" }, "geometry": { "type": "Point", "coordinates": [ -58.6241996, -34.5914922, 0.0 ] } },
{ "type": "Feature", "properties": { "nombre": "CLUB Chenque Rugby", "direccion_std": "nan", "plan": "OTRO/NO ESPECIFICADO", "precio": null, "cadena": "SportClub", "color_map": "#003366" }, "geometry": { "type": "Point", "coordinates": [ -67.5965367, -45.9378996, 0.0 ] } },
{ "type": "Feature", "properties": { "nombre": "Familia SportClub Freedom Box Temperley", "direccion_std": "nan", "plan": "FAMILIA SC", "precio": null, "cadena": "SportClub", "color_map": "#003366" }, "geometry": { "type": "Point", "coordinates": [ -58.389428, -34.785485, 0.0 ] } },
{ "type": "Feature", "properties": { "nombre": "Familia SportClub Club House Gym La Plata", "direccion_std": "nan", "plan": "FAMILIA SC", "precio": null, "cadena": "SportClub", "color_map": "#003366" }, "geometry": { "type": "Point", "coordinates": [ -57.985612, -34.9240007, 0.0 ] } },
{ "type": "Feature", "properties": { "nombre": "Familia SportClub Ns Fitness Maipú", "direccion_std": "nan", "plan": "FAMILIA SC", "precio": null, "cadena": "SportClub", "color_map": "#003366" }, "geometry": { "type": "Point", "coordinates": [ -57.8766642, -36.8612682, 0.0 ] } },
{ "type": "Feature", "properties": { "nombre": "Familia SportClub Crazy Fitness Boedo", "direccion_std": "nan", "plan": "FAMILIA SC", "precio": null, "cadena": "SportClub", "color_map": "#003366" }, "geometry": { "type": "Point", "coordinates": [ -58.4224758, -34.6249101, 0.0 ] } },
{ "type": "Feature", "properties": { "nombre": "Familia SportClub Corpus Gym Balcarce", "direccion_std": "nan", "plan": "FAMILIA SC", "precio": null, "cadena": "SportClub", "color_map": "#003366" }, "geometry": { "type": "Point", "coordinates": [ -58.2529587, -37.8451547, 0.0 ] } },
{ "type": "Feature", "properties": { "nombre": "Familia SportClub Mundo Fitness Nono", "direccion_std": "nan", "plan": "FAMILIA SC", "precio": null, "cadena": "SportClub", "color_map": "#003366" }, "geometry": { "type": "Point", "coordinates": [ -65.00353, -31.7947031, 0.0 ] } },
{ "type": "Feature", "properties": { "nombre": "Familia SportClub Planet Lanus", "direccion_std": "nan", "plan": "FAMILIA SC", "precio": null, "cadena": "SportClub", "color_map": "#003366" }, "geometry": { "type": "Point", "coordinates": [ -58.3915725, -34.7093148, 0.0 ] } },
{ "type": "Feature", "properties": { "nombre": "Familia SportClub Utopía Gym Sede 1 Bahía Blanca", "direccion_std": "nan", "plan": "FAMILIA SC", "precio": null, "cadena": "SportClub", "color_map": "#003366" }, "geometry": { "type": "Point", "coordinates": [ -62.2745981, -38.7071534, 0.0 ] } },
{ "type": "Feature", "properties": { "nombre": "Familia SportClub Utopía Gym Sede 2 Bahía Blanca", "direccion_std": "nan", "plan": "FAMILIA SC", "precio": null, "cadena": "SportClub", "color_map": "#003366" }, "geometry": { "type": "Point", "coordinates": [ -62.2593411, -38.71796, 0.0 ] } },
{ "type": "Feature", "properties": { "nombre": "CLUB Delta Rugby", "direccion_std": "nan", "plan": "OTRO/NO ESPECIFICADO", "precio": null, "cadena": "SportClub", "color_map": "#003366" }, "geometry": { "type": "Point", "coordinates": [ -58.6197943, -34.4039169, 0.0 ] } },
{ "type": "Feature", "properties": { "nombre": "CLUB Atlético Estudiantes de Paraná Sede Playa", "direccion_std": "nan", "plan": "OTRO/NO ESPECIFICADO", "precio": null, "cadena": "SportClub", "color_map": "#003366" }, "geometry": { "type": "Point", "coordinates": [ -60.5239784, -31.7194412, 0.0 ] } },
{ "type": "Feature", "properties": { "nombre": "CLUB Atlético Provincial ", "direccion_std": "nan", "plan": "OTRO/NO ESPECIFICADO", "precio": null, "cadena": "SportClub", "color_map": "#003366" }, "geometry": { "type": "Point", "coordinates": [ -60.6607246, -32.9722782, 0.0 ] } },
{ "type": "Feature", "properties": { "nombre": "Club Banco Nación Rugby", "direccion_std": "nan", "plan": "OTRO/NO ESPECIFICADO", "precio": null, "cadena": "SportClub", "color_map": "#003366" }, "geometry": { "type": "Point", "coordinates": [ -58.7155479, -34.4760263, 0.0 ] } },
{ "type": "Feature", "properties": { "nombre": "CLUB Cipolletti", "direccion_std": "nan", "plan": "OTRO/NO ESPECIFICADO", "precio": null, "cadena": "SportClub", "color_map": "#003366" }, "geometry": { "type": "Point", "coordinates": [ -68.0018791, -38.9368923, 0.0 ] } },
{ "type": "Feature", "properties": { "nombre": "Club Liceo Rugby Mendoza", "direccion_std": "nan", "plan": "OTRO/NO ESPECIFICADO", "precio": null, "cadena": "SportClub", "color_map": "#003366" }, "geometry": { "type": "Point", "coordinates": [ -68.8266952, -32.9881448, 0.0 ] } },
{ "type": "Feature", "properties": { "nombre": "CLUB Los Tilos Rugby", "direccion_std": "nan", "plan": "OTRO/NO ESPECIFICADO", "precio": null, "cadena": "SportClub", "color_map": "#003366" }, "geometry": { "type": "Point", "coordinates": [ -57.9959057, -34.9074805, 0.0 ] } },
{ "type": "Feature", "properties": { "nombre": "CLUB Los Tordos Rugby Club Mendoza", "direccion_std": "nan", "plan": "OTRO/NO ESPECIFICADO", "precio": null, "cadena": "SportClub", "color_map": "#003366" }, "geometry": { "type": "Point", "coordinates": [ -68.7937178, -32.92551, 0.0 ] } },
{ "type": "Feature", "properties": { "nombre": "CLUB Manuel Belgrano Maschwitz", "direccion_std": "nan", "plan": "FAMILIA SC", "precio": null, "cadena": "SportClub", "color_map": "#003366" }, "geometry": { "type": "Point", "coordinates": [ -58.73636, -34.3640256, 0.0 ] } },
{ "type": "Feature", "properties": { "nombre": "CLUB Rosario Central Baigorria", "direccion_std": "nan", "plan": "OTRO/NO ESPECIFICADO", "precio": null, "cadena": "SportClub", "color_map": "#003366" }, "geometry": { "type": "Point", "coordinates": [ -60.6958162, -32.8611968, 0.0 ] } },
{ "type": "Feature", "properties": { "nombre": "CLUB Rosario Central Sede Arroyo Seco", "direccion_std": "nan", "plan": "OTRO/NO ESPECIFICADO", "precio": null, "cadena": "SportClub", "color_map": "#003366" }, "geometry": { "type": "Point", "coordinates": [ -60.5234678, -33.1644843, 0.0 ] } },
{ "type": "Feature", "properties": { "nombre": "CLUB Unión Carmeña Carmen de Areco", "direccion_std": "nan", "plan": "OTRO/NO ESPECIFICADO", "precio": null, "cadena": "SportClub", "color_map": "#003366" }, "geometry": { "type": "Point", "coordinates": [ -59.821849, -34.379315, 0.0 ] } },
{ "type": "Feature", "properties": { "nombre": "CLUB Universitario Rugby MDQ", "direccion_std": "nan", "plan": "OTRO/NO ESPECIFICADO", "precio": null, "cadena": "SportClub", "color_map": "#003366" }, "geometry": { "type": "Point", "coordinates": [ -57.6129098, -37.960309, 0.0 ] } },
{ "type": "Feature", "properties": { "nombre": "CLUB Universitario Rugby Tucuman", "direccion_std": "nan", "plan": "OTRO/NO ESPECIFICADO", "precio": null, "cadena": "SportClub", "color_map": "#003366" }, "geometry": { "type": "Point", "coordinates": [ -65.2636248, -26.8326572, 0.0 ] } },
{ "type": "Feature", "properties": { "nombre": "Familia SportClub Arena Golf", "direccion_std": "nan", "plan": "FAMILIA SC", "precio": null, "cadena": "SportClub", "color_map": "#003366" }, "geometry": { "type": "Point", "coordinates": [ -58.7184731, -34.4593312, 0.0 ] } },
{ "type": "Feature", "properties": { "nombre": "Familia SportClub Base 56 Gimnasio La Plata", "direccion_std": "nan", "plan": "FAMILIA SC", "precio": null, "cadena": "SportClub", "color_map": "#003366" }, "geometry": { "type": "Point", "coordinates": [ -57.9607976, -34.931538, 0.0 ] } },
{ "type": "Feature", "properties": { "nombre": "Familia SportClub Bulls Gym Las Heras", "direccion_std": "nan", "plan": "FAMILIA SC", "precio": null, "cadena": "SportClub", "color_map": "#003366" }, "geometry": { "type": "Point", "coordinates": [ -58.9547734, -34.9197631, 0.0 ] } },
{ "type": "Feature", "properties": { "nombre": "Familia SportClub Complejo Life Fitness Posadas", "direccion_std": "nan", "plan": "FAMILIA SC", "precio": null, "cadena": "SportClub", "color_map": "#003366" }, "geometry": { "type": "Point", "coordinates": [ -55.9310062, -27.367457, 0.0 ] } },
{ "type": "Feature", "properties": { "nombre": "Familia SportClub Cross Mente Gym Gualeguaychu", "direccion_std": "nan", "plan": "FAMILIA SC", "precio": null, "cadena": "SportClub", "color_map": "#003366" }, "geometry": { "type": "Point", "coordinates": [ -58.5172046, -33.0167942, 0.0 ] } },
{ "type": "Feature", "properties": { "nombre": "Familia SportClub Integral Fit Bernal", "direccion_std": "nan", "plan": "FAMILIA SC", "precio": null, "cadena": "SportClub", "color_map": "#003366" }, "geometry": { "type": "Point", "coordinates": [ -58.2906153, -34.7053055, 0.0 ] } },
{ "type": "Feature", "properties": { "nombre": "Familia SportClub Manantial Chacabuco", "direccion_std": "nan", "plan": "FAMILIA SC", "precio": null, "cadena": "SportClub", "color_map": "#003366" }, "geometry": { "type": "Point", "coordinates": [ -64.1854529, -31.4296072, 0.0 ] } },
{ "type": "Feature", "properties": { "nombre": "Familia SportClub Manantial Laprida", "direccion_std": "nan", "plan": "FAMILIA SC", "precio": null, "cadena": "SportClub", "color_map": "#003366" }, "geometry": { "type": "Point", "coordinates": [ -64.1894347, -31.423691, 0.0 ] } },
{ "type": "Feature", "properties": { "nombre": "Familia SportClub Método Alta Gracia", "direccion_std": "nan", "plan": "FAMILIA SC", "precio": null, "cadena": "SportClub", "color_map": "#003366" }, "geometry": { "type": "Point", "coordinates": [ -64.4168091, -31.6509138, 0.0 ] } },
{ "type": "Feature", "properties": { "nombre": "Familia SportClub Move Caseros", "direccion_std": "nan", "plan": "FAMILIA SC", "precio": null, "cadena": "SportClub", "color_map": "#003366" }, "geometry": { "type": "Point", "coordinates": [ -58.5520619, -34.6139558, 0.0 ] } },
{ "type": "Feature", "properties": { "nombre": "Familia SportClub Move El Bolsón", "direccion_std": "nan", "plan": "FAMILIA SC", "precio": null, "cadena": "SportClub", "color_map": "#003366" }, "geometry": { "type": "Point", "coordinates": [ -71.5314102, -41.9592285, 0.0 ] } },
{ "type": "Feature", "properties": { "nombre": "Familia SportClub Pire Hue ", "direccion_std": "nan", "plan": "FAMILIA SC", "precio": null, "cadena": "SportClub", "color_map": "#003366" }, "geometry": { "type": "Point", "coordinates": [ -71.4446531, -41.1654029, 0.0 ] } },
{ "type": "Feature", "properties": { "nombre": "Familia SportClub Pro Center Club Rosario", "direccion_std": "nan", "plan": "FAMILIA SC", "precio": null, "cadena": "SportClub", "color_map": "#003366" }, "geometry": { "type": "Point", "coordinates": [ -60.6382544, -32.9534316, 0.0 ] } },
{ "type": "Feature", "properties": { "nombre": "Familia SportClub REF Gym Ranelagh", "direccion_std": "nan", "plan": "FAMILIA SC", "precio": null, "cadena": "SportClub", "color_map": "#003366" }, "geometry": { "type": "Point", "coordinates": [ -58.2082169, -34.7912715, 0.0 ] } },
{ "type": "Feature", "properties": { "nombre": "Familia SportClub Skilful Sede Centro", "direccion_std": "nan", "plan": "FAMILIA SC", "precio": null, "cadena": "SportClub", "color_map": "#003366" }, "geometry": { "type": "Point", "coordinates": [ -60.7082463, -31.6435709, 0.0 ] } },
{ "type": "Feature", "properties": { "nombre": "Familia SportClub Taurus Center San Luis", "direccion_std": "nan", "plan": "FAMILIA SC", "precio": null, "cadena": "SportClub", "color_map": "#003366" }, "geometry": { "type": "Point", "coordinates": [ -66.3428736, -33.2949335, 0.0 ] } },
{ "type": "Feature", "properties": { "nombre": "Familia SportClub Valhalla Gym Catriel", "direccion_std": "nan", "plan": "FAMILIA SC", "precio": null, "cadena": "SportClub", "color_map": "#003366" }, "geometry": { "type": "Point", "coordinates": [ -67.7922779, -37.87192, 0.0 ] } },
{ "type": "Feature", "properties": { "nombre": "CLUB Santa Rosa Rugby ", "direccion_std": "nan", "plan": "OTRO/NO ESPECIFICADO", "precio": null, "cadena": "SportClub", "color_map": "#003366" }, "geometry": { "type": "Point", "coordinates": [ -64.2544162, -36.600651, 0.0 ] } },
{ "type": "Feature", "properties": { "nombre": "CLUB FP Oeste Moreno", "direccion_std": "nan", "plan": "OTRO/NO ESPECIFICADO", "precio": null, "cadena": "SportClub", "color_map": "#003366" }, "geometry": { "type": "Point", "coordinates": [ -58.7770569, -34.6461953, 0.0 ] } },
{ "type": "Feature", "properties": { "nombre": "Familia SportClub Box Santa Cruz Paraná", "direccion_std": "nan", "plan": "FAMILIA SC", "precio": null, "cadena": "SportClub", "color_map": "#003366" }, "geometry": { "type": "Point", "coordinates": [ -60.5067681, -31.746162, 0.0 ] } },
{ "type": "Feature", "properties": { "nombre": "CLUB Head Pádel Hindú", "direccion_std": "nan", "plan": "OTRO/NO ESPECIFICADO", "precio": null, "cadena": "SportClub", "color_map": "#003366" }, "geometry": { "type": "Point", "coordinates": [ -58.644086, -34.500699, 0.0 ] } },
{ "type": "Feature", "properties": { "nombre": "Familia SportClub Fitness Gym Center Reconquista", "direccion_std": "nan", "plan": "FAMILIA SC", "precio": null, "cadena": "SportClub", "color_map": "#003366" }, "geometry": { "type": "Point", "coordinates": [ -59.6488333, -29.1427312, 0.0 ] } },
{ "type": "Feature", "properties": { "nombre": "Familia SportClub Fitter Junín", "direccion_std": "nan", "plan": "FAMILIA SC", "precio": null, "cadena": "SportClub", "color_map": "#003366" }, "geometry": { "type": "Point", "coordinates": [ -60.9463626, -34.5927218, 0.0 ] } },
{ "type": "Feature", "properties": { "nombre": "CLUB Jockey Villa María", "direccion_std": "nan", "plan": "OTRO/NO ESPECIFICADO", "precio": null, "cadena": "SportClub", "color_map": "#003366" }, "geometry": { "type": "Point", "coordinates": [ -63.2674469, -32.4099423, 0.0 ] } },
{ "type": "Feature", "properties": { "nombre": "Familia SportClub Geba San Martín", "direccion_std": "nan", "plan": "FAMILIA SC", "precio": null, "cadena": "SportClub", "color_map": "#003366" }, "geometry": { "type": "Point", "coordinates": [ -58.4282103, -34.5602438, 0.0 ] } },
{ "type": "Feature", "properties": { "nombre": "Familia SportClub Fox Gym", "direccion_std": "nan", "plan": "FAMILIA SC", "precio": null, "cadena": "SportClub", "color_map": "#003366" }, "geometry": { "type": "Point", "coordinates": [ -60.6542824, -32.9326832, 0.0 ] } },
{ "type": "Feature", "properties": { "nombre": "Familia SportClub APF XL Castelar", "direccion_std": "nan", "plan": "FAMILIA SC", "precio": null, "cadena": "SportClub", "color_map": "#003366" }, "geometry": { "type": "Point", "coordinates": [ -58.630502, -34.6445284, 0.0 ] } },
{ "type": "Feature", "properties": { "nombre": "Familia SportClub Zeuz Victoria", "direccion_std": "nan", "plan": "FAMILIA SC", "precio": null, "cadena": "SportClub", "color_map": "#003366" }, "geometry": { "type": "Point", "coordinates": [ -60.1547284, -32.6258889, 0.0 ] } },
{ "type": "Feature", "properties": { "nombre": "Familia SportClub Atlantis Gym Choele Choel", "direccion_std": "nan", "plan": "FAMILIA SC", "precio": null, "cadena": "SportClub", "color_map": "#003366" }, "geometry": { "type": "Point", "coordinates": [ -65.6606827, -39.2959542, 0.0 ] } },
{ "type": "Feature", "properties": { "nombre": "Familia SportClub Aruba Fitness Club Neuquén", "direccion_std": "nan", "plan": "FAMILIA SC", "precio": null, "cadena": "SportClub", "color_map": "#003366" }, "geometry": { "type": "Point", "coordinates": [ -68.0707923, -38.9466833, 0.0 ] } },
{ "type": "Feature", "properties": { "nombre": "Familia SportClub Focus Fitness Rosario", "direccion_std": "nan", "plan": "FAMILIA SC", "precio": null, "cadena": "SportClub", "color_map": "#003366" }, "geometry": { "type": "Point", "coordinates": [ -60.6339572, -32.9756651, 0.0 ] } },
{ "type": "Feature", "properties": { "nombre": "Familia SportClub Physical Fitness Cosquín", "direccion_std": "nan", "plan": "FAMILIA SC", "precio": null, "cadena": "SportClub", "color_map": "#003366" }, "geometry": { "type": "Point", "coordinates": [ -64.4636804, -31.2358639, 0.0 ] } },
{ "type": "Feature", "properties": { "nombre": "Familia SportClub Enbox Fitness Plaza Huincul", "direccion_std": "nan", "plan": "FAMILIA SC", "precio": null, "cadena": "SportClub", "color_map": "#003366" }, "geometry": { "type": "Point", "coordinates": [ -69.2095043, -38.931604, 0.0 ] } },
{ "type": "Feature", "properties": { "nombre": "Familia SportClub Evolution Sport Mataderos", "direccion_std": "nan", "plan": "FAMILIA SC", "precio": null, "cadena": "SportClub", "color_map": "#003366" }, "geometry": { "type": "Point", "coordinates": [ -58.4969673, -34.6470184, 0.0 ] } },
{ "type": "Feature", "properties": { "nombre": "Familia SportClub Box Train Maipu Mendoza", "direccion_std": "nan", "plan": "FAMILIA SC", "precio": null, "cadena": "SportClub", "color_map": "#003366" }, "geometry": { "type": "Point", "coordinates": [ -68.8026925, -32.9397655, 0.0 ] } },
{ "type": "Feature", "properties": { "nombre": "Familia SportClub BB Trainer Tartagal", "direccion_std": "nan", "plan": "FAMILIA SC", "precio": null, "cadena": "SportClub", "color_map": "#003366" }, "geometry": { "type": "Point", "coordinates": [ -63.8038037, -22.5207996, 0.0 ] } },
{ "type": "Feature", "properties": { "nombre": "Familia SportClub Centro Sport Bragado", "direccion_std": "nan", "plan": "FAMILIA SC", "precio": null, "cadena": "SportClub", "color_map": "#003366" }, "geometry": { "type": "Point", "coordinates": [ -60.4858295, -35.1136055, 0.0 ] } },
{ "type": "Feature", "properties": { "nombre": "Familia SportClub Centro de fuerza Total", "direccion_std": "nan", "plan": "TOTAL", "precio": null, "cadena": "SportClub", "color_map": "#003366" }, "geometry": { "type": "Point", "coordinates": [ -58.4951913, -34.6383265, 0.0 ] } },
{ "type": "Feature", "properties": { "nombre": "Familia SportClub Aero Gym", "direccion_std": "nan", "plan": "FAMILIA SC", "precio": null, "cadena": "SportClub", "color_map": "#003366" }, "geometry": { "type": "Point", "coordinates": [ -64.056536, -31.3714755, 0.0 ] } },
{ "type": "Feature", "properties": { "nombre": "Familia SportClub Punto Fit MDQ", "direccion_std": "nan", "plan": "FAMILIA SC", "precio": null, "cadena": "SportClub", "color_map": "#003366" }, "geometry": { "type": "Point", "coordinates": [ -57.5444581, -37.9704928, 0.0 ] } },
{ "type": "Feature", "properties": { "nombre": "CLUB Comunicaciones", "direccion_std": "nan", "plan": "OTRO/NO ESPECIFICADO", "precio": null, "cadena": "SportClub", "color_map": "#003366" }, "geometry": { "type": "Point", "coordinates": [ -58.490104, -34.5969779, 0.0 ] } },
{ "type": "Feature", "properties": { "nombre": "Babolat Padel Center Remeros Plaza", "direccion_std": "nan", "plan": "OTRO/NO ESPECIFICADO", "precio": null, "cadena": "SportClub", "color_map": "#003366" }, "geometry": { "type": "Point", "coordinates": [ -58.6204612, -34.4039658, 0.0 ] } },
{ "type": "Feature", "properties": { "nombre": "Familia SportClub Sona Gym", "direccion_std": "nan", "plan": "FAMILIA SC", "precio": null, "cadena": "SportClub", "color_map": "#003366" }, "geometry": { "type": "Point", "coordinates": [ -69.2144317, -51.6199111, 0.0 ] } },
{ "type": "Feature", "properties": { "nombre": "Familia SportClub Sinergia San José Entre Ríos", "direccion_std": "nan", "plan": "FAMILIA SC", "precio": null, "cadena": "SportClub", "color_map": "#003366" }, "geometry": { "type": "Point", "coordinates": [ -58.2210438, -32.2109851, 0.0 ] } },
{ "type": "Feature", "properties": { "nombre": "Familia SportClub Sinergia San Salvador", "direccion_std": "nan", "plan": "FAMILIA SC", "precio": null, "cadena": "SportClub", "color_map": "#003366" }, "geometry": { "type": "Point", "coordinates": [ -58.5040549, -31.622798, 0.0 ] } },
{ "type": "Feature", "properties": { "nombre": "Familia SportClub Brothers Gym\n", "direccion_std": "nan", "plan": "FAMILIA SC", "precio": null, "cadena": "SportClub", "color_map": "#003366" }, "geometry": { "type": "Point", "coordinates": [ -58.7935901, -34.7189446, 0.0 ] } },
{ "type": "Feature", "properties": { "nombre": "Familia SportClub Mactraining\n", "direccion_std": "nan", "plan": "FAMILIA SC", "precio": null, "cadena": "SportClub", "color_map": "#003366" }, "geometry": { "type": "Point", "coordinates": [ -57.8398687, -38.2624923, 0.0 ] } },
{ "type": "Feature", "properties": { "nombre": "Familia SportClub FitClub\n", "direccion_std": "nan", "plan": "FAMILIA SC", "precio": null, "cadena": "SportClub", "color_map": "#003366" }, "geometry": { "type": "Point", "coordinates": [ -59.1148543, -34.5656561, 0.0 ] } },
{ "type": "Feature", "properties": { "nombre": "Familia SportClub Hp Gym\n", "direccion_std": "nan", "plan": "FAMILIA SC", "precio": null, "cadena": "SportClub", "color_map": "#003366" }, "geometry": { "type": "Point", "coordinates": [ -58.9094581, -34.4562491, 0.0 ] } },
{ "type": "Feature", "properties": { "nombre": "Familia SportClub ST Training Club Santa Teresita\n", "direccion_std": "nan", "plan": "FAMILIA SC", "precio": null, "cadena": "SportClub", "color_map": "#003366" }, "geometry": { "type": "Point", "coordinates": [ -56.6931668, -36.5508136, 0.0 ] } },
{ "type": "Feature", "properties": { "nombre": "Familia SportClub Mueve Multiespacio\n", "direccion_std": "nan", "plan": "FAMILIA SC", "precio": null, "cadena": "SportClub", "color_map": "#003366" }, "geometry": { "type": "Point", "coordinates": [ -58.5928574, -34.5866939, 0.0 ] } },
{ "type": "Feature", "properties": { "nombre": "Familia SportClub Kaizen Ramos Mejía\n", "direccion_std": "nan", "plan": "FAMILIA SC", "precio": null, "cadena": "SportClub", "color_map": "#003366" }, "geometry": { "type": "Point", "coordinates": [ -58.5704518, -34.6382159, 0.0 ] } },
{ "type": "Feature", "properties": { "nombre": "Familia SportClub Bamboo Training Florida\n", "direccion_std": "nan", "plan": "FAMILIA SC", "precio": null, "cadena": "SportClub", "color_map": "#003366" }, "geometry": { "type": "Point", "coordinates": [ -58.5004164, -34.5284802, 0.0 ] } },
{ "type": "Feature", "properties": { "nombre": "Familia SportClub Gallo Gym\n", "direccion_std": "nan", "plan": "FAMILIA SC", "precio": null, "cadena": "SportClub", "color_map": "#003366" }, "geometry": { "type": "Point", "coordinates": [ -60.0550903, -33.494688, 0.0 ] } },
{ "type": "Feature", "properties": { "nombre": "Familia SportClub Hard Work Gym Rosario\n", "direccion_std": "nan", "plan": "FAMILIA SC", "precio": null, "cadena": "SportClub", "color_map": "#003366" }, "geometry": { "type": "Point", "coordinates": [ -60.6475163, -32.9956908, 0.0 ] } },
{ "type": "Feature", "properties": { "nombre": "Familia SportClub Zone Burpees\n", "direccion_std": "nan", "plan": "FAMILIA SC", "precio": null, "cadena": "SportClub", "color_map": "#003366" }, "geometry": { "type": "Point", "coordinates": [ -68.8193849, -32.9049559, 0.0 ] } },
{ "type": "Feature", "properties": { "nombre": "Familia SportClub FitSaludBox Ituzaingo\n", "direccion_std": "nan", "plan": "FAMILIA SC", "precio": null, "cadena": "SportClub", "color_map": "#003366" }, "geometry": { "type": "Point", "coordinates": [ -58.663888, -34.6481413, 0.0 ] } },
{ "type": "Feature", "properties": { "nombre": "Familia SportClub Worldfitness\n", "direccion_std": "nan", "plan": "FAMILIA SC", "precio": null, "cadena": "SportClub", "color_map": "#003366" }, "geometry": { "type": "Point", "coordinates": [ -61.4922324, -31.245039, 0.0 ] } },
{ "type": "Feature", "properties": { "nombre": "Familia SportClub Estudio Naty Russo\n", "direccion_std": "nan", "plan": "FAMILIA SC", "precio": null, "cadena": "SportClub", "color_map": "#003366" }, "geometry": { "type": "Point", "coordinates": [ -58.0284138, -34.8734279, 0.0 ] } },
{ "type": "Feature", "properties": { "nombre": "Familia SportClub Station 2 Tandil\n", "direccion_std": "nan", "plan": "FAMILIA SC", "precio": null, "cadena": "SportClub", "color_map": "#003366" }, "geometry": { "type": "Point", "coordinates": [ -59.1391007, -37.3289019, 0.0 ] } },
{ "type": "Feature", "properties": { "nombre": "Familia SportClub Planet Recoleta", "direccion_std": "nan", "plan": "FAMILIA SC", "precio": null, "cadena": "SportClub", "color_map": "#003366" }, "geometry": { "type": "Point", "coordinates": [ -58.4042634, -34.5936065, 0.0 ] } },
{ "type": "Feature", "properties": { "nombre": "Familia SportClub Mas Actividades Fisicas\n", "direccion_std": "nan", "plan": "FAMILIA SC", "precio": null, "cadena": "SportClub", "color_map": "#003366" }, "geometry": { "type": "Point", "coordinates": [ -61.5582345, -30.9451448, 0.0 ] } },
{ "type": "Feature", "properties": { "nombre": "Familia SportClub Murdock\n", "direccion_std": "nan", "plan": "FAMILIA SC", "precio": null, "cadena": "SportClub", "color_map": "#003366" }, "geometry": { "type": "Point", "coordinates": [ -68.8280805, -32.9373637, 0.0 ] } },
{ "type": "Feature", "properties": { "nombre": "Familia SportClub Planet Retiro\n", "direccion_std": "nan", "plan": "FAMILIA SC", "precio": null, "cadena": "SportClub", "color_map": "#003366" }, "geometry": { "type": "Point", "coordinates": [ -58.385529, -34.5965566, 0.0 ] } },
{ "type": "Feature", "properties": { "nombre": "Familia SportClub Planet Congreso", "direccion_std": "nan", "plan": "FAMILIA SC", "precio": null, "cadena": "SportClub", "color_map": "#003366" }, "geometry": { "type": "Point", "coordinates": [ -58.3987219, -34.6095473, 0.0 ] } },
{ "type": "Feature", "properties": { "nombre": "Familia SportClub Oxigeno Haedo", "direccion_std": "nan", "plan": "FAMILIA SC", "precio": null, "cadena": "SportClub", "color_map": "#003366" }, "geometry": { "type": "Point", "coordinates": [ -58.593502, -34.6439939, 0.0 ] } },
{ "type": "Feature", "properties": { "nombre": "Familia SportClub Planet Avellaneda\n", "direccion_std": "nan", "plan": "FAMILIA SC", "precio": null, "cadena": "SportClub", "color_map": "#003366" }, "geometry": { "type": "Point", "coordinates": [ -58.3320423, -34.6770826, 0.0 ] } },
{ "type": "Feature", "properties": { "nombre": "Familia SportClub Planet San Martin", "direccion_std": "nan", "plan": "FAMILIA SC", "precio": null, "cadena": "SportClub", "color_map": "#003366" }, "geometry": { "type": "Point", "coordinates": [ -58.5375825, -34.5711594, 0.0 ] } },
{ "type": "Feature", "properties": { "nombre": "Familia SportClub FreeTime\n", "direccion_std": "nan", "plan": "FAMILIA SC", "precio": null, "cadena": "SportClub", "color_map": "#003366" }, "geometry": { "type": "Point", "coordinates": [ -60.4755895, -34.6382696, 0.0 ] } },
{ "type": "Feature", "properties": { "nombre": "Familia SportClub Willie Pep\n", "direccion_std": "nan", "plan": "FAMILIA SC", "precio": null, "cadena": "SportClub", "color_map": "#003366" }, "geometry": { "type": "Point", "coordinates": [ -60.7205202, -31.6470154, 0.0 ] } },
{ "type": "Feature", "properties": { "nombre": "Familia SportClub Vibra Dance Studio\n", "direccion_std": "nan", "plan": "FLEX", "precio": null, "cadena": "SportClub", "color_map": "#003366" }, "geometry": { "type": "Point", "coordinates": [ -60.6971813, -31.6308818, 0.0 ] } },
{ "type": "Feature", "properties": { "nombre": "Familia SportClub Oxigeno 2 Parana\n", "direccion_std": "nan", "plan": "FAMILIA SC", "precio": null, "cadena": "SportClub", "color_map": "#003366" }, "geometry": { "type": "Point", "coordinates": [ -60.5234685, -31.7296306, 0.0 ] } },
{ "type": "Feature", "properties": { "nombre": "Familia SportClub Ghispas Gym\n", "direccion_std": "nan", "plan": "FAMILIA SC", "precio": null, "cadena": "SportClub", "color_map": "#003366" }, "geometry": { "type": "Point", "coordinates": [ -57.899824, -34.8848993, 0.0 ] } },
{ "type": "Feature", "properties": { "nombre": "Familia SportClub Familia SportClub Msix Gym\n", "direccion_std": "nan", "plan": "FAMILIA SC", "precio": null, "cadena": "SportClub", "color_map": "#003366" }, "geometry": { "type": "Point", "coordinates": [ -64.3570783, -33.1156481, 0.0 ] } },
{ "type": "Feature", "properties": { "nombre": "Familia SportClub Troopers Fitness Club Rosario\n", "direccion_std": "nan", "plan": "FAMILIA SC", "precio": null, "cadena": "SportClub", "color_map": "#003366" }, "geometry": { "type": "Point", "coordinates": [ -60.7022209, -32.9350814, 0.0 ] } },
{ "type": "Feature", "properties": { "nombre": "Familia SportClub Energy Gym\n", "direccion_std": "nan", "plan": "FAMILIA SC", "precio": null, "cadena": "SportClub", "color_map": "#003366" }, "geometry": { "type": "Point", "coordinates": [ -62.2654305, -28.8853798, 0.0 ] } },
{ "type": "Feature", "properties": { "nombre": "Familia SportClub Animate Fit\n", "direccion_std": "nan", "plan": "FAMILIA SC", "precio": null, "cadena": "SportClub", "color_map": "#003366" }, "geometry": { "type": "Point", "coordinates": [ -60.8077463, -32.9178076, 0.0 ] } },
{ "type": "Feature", "properties": { "nombre": "Familia SportClub Train Hard Berazategui\n", "direccion_std": "nan", "plan": "FAMILIA SC", "precio": null, "cadena": "SportClub", "color_map": "#003366" }, "geometry": { "type": "Point", "coordinates": [ -58.2630324, -34.7787607, 0.0 ] } },
{ "type": "Feature", "properties": { "nombre": "Familia SportClub Morfeo Gym\n", "direccion_std": "nan", "plan": "FAMILIA SC", "precio": null, "cadena": "SportClub", "color_map": "#003366" }, "geometry": { "type": "Point", "coordinates": [ -57.5179268, -35.074947, 0.0 ] } },
{ "type": "Feature", "properties": { "nombre": "Familia SportClub Motus\n", "direccion_std": "nan", "plan": "PLUS", "precio": null, "cadena": "SportClub", "color_map": "#003366" }, "geometry": { "type": "Point", "coordinates": [ -58.5565548, -34.5523237, 0.0 ] } },
{ "type": "Feature", "properties": { "nombre": "Familia SportClub Mane Entrenamiento\n", "direccion_std": "nan", "plan": "FAMILIA SC", "precio": null, "cadena": "SportClub", "color_map": "#003366" }, "geometry": { "type": "Point", "coordinates": [ -59.3120986, -33.1464941, 0.0 ] } },
{ "type": "Feature", "properties": { "nombre": "Familia SportClub Jungle\n", "direccion_std": "nan", "plan": "FAMILIA SC", "precio": null, "cadena": "SportClub", "color_map": "#003366" }, "geometry": { "type": "Point", "coordinates": [ -68.7885709, -32.908279, 0.0 ] } },
{ "type": "Feature", "properties": { "nombre": "Familia SportClub Evolution Fyt MDQ\n", "direccion_std": "nan", "plan": "FAMILIA SC", "precio": null, "cadena": "SportClub", "color_map": "#003366" }, "geometry": { "type": "Point", "coordinates": [ -57.5572551, -37.996709, 0.0 ] } },
{ "type": "Feature", "properties": { "nombre": "Familia SportClub Gimnasio Olimpo Valeria del Mar", "direccion_std": "nan", "plan": "FAMILIA SC", "precio": null, "cadena": "SportClub", "color_map": "#003366" }, "geometry": { "type": "Point", "coordinates": [ -56.8798431, -37.1440345, 0.0 ] } },
{ "type": "Feature", "properties": { "nombre": "Familia SportClub Alma Pilates\n", "direccion_std": "nan", "plan": "PLUS", "precio": null, "cadena": "SportClub", "color_map": "#003366" }, "geometry": { "type": "Point", "coordinates": [ -68.8818528, -32.9875564, 0.0 ] } },
{ "type": "Feature", "properties": { "nombre": "Familia SportClub Wolf Gym Sexta\n", "direccion_std": "nan", "plan": "FAMILIA SC", "precio": null, "cadena": "SportClub", "color_map": "#003366" }, "geometry": { "type": "Point", "coordinates": [ -68.8476092, -32.8747515, 0.0 ] } },
{ "type": "Feature", "properties": { "nombre": "Familia SportClub MG Fitness Center\n", "direccion_std": "nan", "plan": "FAMILIA SC", "precio": null, "cadena": "SportClub", "color_map": "#003366" }, "geometry": { "type": "Point", "coordinates": [ -64.1455136, -31.379469, 0.0 ] } },
{ "type": "Feature", "properties": { "nombre": "Centro Acuático Montane\n", "direccion_std": "nan", "plan": "OTRO/NO ESPECIFICADO", "precio": null, "cadena": "SportClub", "color_map": "#003366" }, "geometry": { "type": "Point", "coordinates": [ -68.8736724, -32.8802261, 0.0 ] } },
{ "type": "Feature", "properties": { "nombre": "Familia SportClub Voltage Fitness Gym\n", "direccion_std": "nan", "plan": "FAMILIA SC", "precio": null, "cadena": "SportClub", "color_map": "#003366" }, "geometry": { "type": "Point", "coordinates": [ -61.1317292, -34.1251558, 0.0 ] } },
{ "type": "Feature", "properties": { "nombre": "Familia SportClub Taurus Center 2\n", "direccion_std": "nan", "plan": "FAMILIA SC", "precio": null, "cadena": "SportClub", "color_map": "#003366" }, "geometry": { "type": "Point", "coordinates": [ -66.2708958, -33.2958171, 0.0 ] } },
{ "type": "Feature", "properties": { "nombre": "Familia SportClub Bailamos Ramos Mejia\n", "direccion_std": "nan", "plan": "FAMILIA SC", "precio": null, "cadena": "SportClub", "color_map": "#003366" }, "geometry": { "type": "Point", "coordinates": [ -58.5646875, -34.6415625, 0.0 ] } },
{ "type": "Feature", "properties": { "nombre": "Club Deportivo Libertad de Sunchales\n", "direccion_std": "nan", "plan": "OTRO/NO ESPECIFICADO", "precio": null, "cadena": "SportClub", "color_map": "#003366" }, "geometry": { "type": "Point", "coordinates": [ -61.557352, -30.941242, 0.0 ] } },
{ "type": "Feature", "properties": { "nombre": "Familia SportClub Cardenal Gym", "direccion_std": "nan", "plan": "FAMILIA SC", "precio": null, "cadena": "SportClub", "color_map": "#003366" }, "geometry": { "type": "Point", "coordinates": [ -58.4064357, -35.013998, 0.0 ] } },
{ "type": "Feature", "properties": { "nombre": "Familia SportClub Animals Gym Laprida\n", "direccion_std": "nan", "plan": "FAMILIA SC", "precio": null, "cadena": "SportClub", "color_map": "#003366" }, "geometry": { "type": "Point", "coordinates": [ -60.7914082, -37.5424617, 0.0 ] } },
{ "type": "Feature", "properties": { "nombre": "Club Golf los Acantilados\n", "direccion_std": "nan", "plan": "OTRO/NO ESPECIFICADO", "precio": null, "cadena": "SportClub", "color_map": "#003366" }, "geometry": { "type": "Point", "coordinates": [ -57.6119211, -38.1163018, 0.0 ] } },
{ "type": "Feature", "properties": { "nombre": "Familia SportClub Planet Parque centenario\n", "direccion_std": "nan", "plan": "FAMILIA SC", "precio": null, "cadena": "SportClub", "color_map": "#003366" }, "geometry": { "type": "Point", "coordinates": [ -58.4355643, -34.608638, 0.0 ] } },
{ "type": "Feature", "properties": { "nombre": "Familia SportClub Planet Cordoba\n", "direccion_std": "nan", "plan": "FAMILIA SC", "precio": null, "cadena": "SportClub", "color_map": "#003366" }, "geometry": { "type": "Point", "coordinates": [ -64.1685963, -31.44036, 0.0 ] } },
{ "type": "Feature", "properties": { "nombre": "Familia SportClub Bive Pilates Sede 2\n", "direccion_std": "nan", "plan": "FAMILIA SC", "precio": null, "cadena": "SportClub", "color_map": "#003366" }, "geometry": { "type": "Point", "coordinates": [ -58.5026378, -34.6375717, 0.0 ] } },
{ "type": "Feature", "properties": { "nombre": "Familia SportClub Anca Studio Pilates\n", "direccion_std": "nan", "plan": "FAMILIA SC", "precio": null, "cadena": "SportClub", "color_map": "#003366" }, "geometry": { "type": "Point", "coordinates": [ -57.5454778, -37.994088, 0.0 ] } },
{ "type": "Feature", "properties": { "nombre": "Familia SportClub Opus Pilates Villa Martelli\n", "direccion_std": "nan", "plan": "FAMILIA SC", "precio": null, "cadena": "SportClub", "color_map": "#003366" }, "geometry": { "type": "Point", "coordinates": [ -58.5010698, -34.5491661, 0.0 ] } },
{ "type": "Feature", "properties": { "nombre": "Familia SportClub Living Pole Dance Caba\n", "direccion_std": "nan", "plan": "FAMILIA SC", "precio": null, "cadena": "SportClub", "color_map": "#003366" }, "geometry": { "type": "Point", "coordinates": [ -58.4389009, -34.6001705, 0.0 ] } },
{ "type": "Feature", "properties": { "nombre": "Familia SportClub Outside The Box\n", "direccion_std": "nan", "plan": "FAMILIA SC", "precio": null, "cadena": "SportClub", "color_map": "#003366" }, "geometry": { "type": "Point", "coordinates": [ -58.4800174, -34.5771329, 0.0 ] } },
{ "type": "Feature", "properties": { "nombre": "Familia SportClub Centro Norma Fol\n", "direccion_std": "nan", "plan": "FAMILIA SC", "precio": null, "cadena": "SportClub", "color_map": "#003366" }, "geometry": { "type": "Point", "coordinates": [ -58.4889238, -34.5285094, 0.0 ] } },
{ "type": "Feature", "properties": { "nombre": "Familia SportClub Oxigeno Paraná", "direccion_std": "nan", "plan": "FAMILIA SC", "precio": null, "cadena": "SportClub", "color_map": "#003366" }, "geometry": { "type": "Point", "coordinates": [ -60.5230167, -31.7299932, 0.0 ] } },
{ "type": "Feature", "properties": { "nombre": "Familia SportClub Lift Training Bariloche\n", "direccion_std": "nan", "plan": "FAMILIA SC", "precio": null, "cadena": "SportClub", "color_map": "#003366" }, "geometry": { "type": "Point", "coordinates": [ -71.3612963, -41.1259218, 0.0 ] } },
{ "type": "Feature", "properties": { "nombre": "Familia SportClub San Luis Training Center\n", "direccion_std": "nan", "plan": "FAMILIA SC", "precio": null, "cadena": "SportClub", "color_map": "#003366" }, "geometry": { "type": "Point", "coordinates": [ -66.323616, -33.3060766, 0.0 ] } },
{ "type": "Feature", "properties": { "nombre": "Familia SportClub Bahia Cross Sede Sarmiento\n", "direccion_std": "nan", "plan": "FAMILIA SC", "precio": null, "cadena": "SportClub", "color_map": "#003366" }, "geometry": { "type": "Point", "coordinates": [ -62.2556137, -38.7077005, 0.0 ] } },
{ "type": "Feature", "properties": { "nombre": "Familia SportClub HouseFit Nuñez\n", "direccion_std": "nan", "plan": "FAMILIA SC", "precio": null, "cadena": "SportClub", "color_map": "#003366" }, "geometry": { "type": "Point", "coordinates": [ -58.4734081, -34.5416947, 0.0 ] } },
{ "type": "Feature", "properties": { "nombre": "Familia SportClub Urquiza Fitness Pilates\n", "direccion_std": "nan", "plan": "FAMILIA SC", "precio": null, "cadena": "SportClub", "color_map": "#003366" }, "geometry": { "type": "Point", "coordinates": [ -58.4635997, -34.5805711, 0.0 ] } },
{ "type": "Feature", "properties": { "nombre": "Familia SportClub Centro de Yoga Argentina\n", "direccion_std": "nan", "plan": "FAMILIA SC", "precio": null, "cadena": "SportClub", "color_map": "#003366" }, "geometry": { "type": "Point", "coordinates": [ -58.5676627, -34.6054976, 0.0 ] } },
{ "type": "Feature", "properties": { "nombre": "Familia SportClub Luxor Gym\n", "direccion_std": "nan", "plan": "FAMILIA SC", "precio": null, "cadena": "SportClub", "color_map": "#003366" }, "geometry": { "type": "Point", "coordinates": [ -65.248857, -26.8091615, 0.0 ] } },
{ "type": "Feature", "properties": { "nombre": "Familia SportClub Be One Gym\n", "direccion_std": "nan", "plan": "FAMILIA SC", "precio": null, "cadena": "SportClub", "color_map": "#003366" }, "geometry": { "type": "Point", "coordinates": [ -58.428968, -34.602521, 0.0 ] } },
{ "type": "Feature", "properties": { "nombre": "Familia SportClub Niketan Yoga\n", "direccion_std": "nan", "plan": "FAMILIA SC", "precio": null, "cadena": "SportClub", "color_map": "#003366" }, "geometry": { "type": "Point", "coordinates": [ -58.4396076, -34.576416, 0.0 ] } },
{ "type": "Feature", "properties": { "nombre": "Familia SportClub Poseidon GYM\n", "direccion_std": "nan", "plan": "FAMILIA SC", "precio": null, "cadena": "SportClub", "color_map": "#003366" }, "geometry": { "type": "Point", "coordinates": [ -65.0332036, -42.7735208, 0.0 ] } },
{ "type": "Feature", "properties": { "nombre": "Familia SportClub Pantera Fitness\n", "direccion_std": "nan", "plan": "FAMILIA SC", "precio": null, "cadena": "SportClub", "color_map": "#003366" }, "geometry": { "type": "Point", "coordinates": [ -58.4053723, -34.6346805, 0.0 ] } },
{ "type": "Feature", "properties": { "nombre": "Familia SportClub Hema Almagro\n", "direccion_std": "nan", "plan": "FAMILIA SC", "precio": null, "cadena": "SportClub", "color_map": "#003366" }, "geometry": { "type": "Point", "coordinates": [ -58.428889, -34.6067105, 0.0 ] } },
{ "type": "Feature", "properties": { "nombre": "Familia SportClub Black Fox\n", "direccion_std": "nan", "plan": "FAMILIA SC", "precio": null, "cadena": "SportClub", "color_map": "#003366" }, "geometry": { "type": "Point", "coordinates": [ -58.4610985, -34.6111133, 0.0 ] } },
{ "type": "Feature", "properties": { "nombre": "Familia SportClub Ground Fit Sede Ciudad\n", "direccion_std": "nan", "plan": "FAMILIA SC", "precio": null, "cadena": "SportClub", "color_map": "#003366" }, "geometry": { "type": "Point", "coordinates": [ -68.8418417, -32.9008828, 0.0 ] } },
{ "type": "Feature", "properties": { "nombre": "Familia SportClub Ohana Pilates\n", "direccion_std": "nan", "plan": "FAMILIA SC", "precio": null, "cadena": "SportClub", "color_map": "#003366" }, "geometry": { "type": "Point", "coordinates": [ -60.6852538, -32.9407227, 0.0 ] } },
{ "type": "Feature", "properties": { "nombre": "Familia SportClub Planet Boedo\n", "direccion_std": "nan", "plan": "FAMILIA SC", "precio": null, "cadena": "SportClub", "color_map": "#003366" }, "geometry": { "type": "Point", "coordinates": [ -58.4107726, -34.62501, 0.0 ] } },
{ "type": "Feature", "properties": { "nombre": "Familia SportClub Kairos Lujan\n", "direccion_std": "nan", "plan": "FAMILIA SC", "precio": null, "cadena": "SportClub", "color_map": "#003366" }, "geometry": { "type": "Point", "coordinates": [ -59.1171698, -34.5570677, 0.0 ] } },
{ "type": "Feature", "properties": { "nombre": "Familia SportClub Just Balance Zarate\n", "direccion_std": "nan", "plan": "FAMILIA SC", "precio": null, "cadena": "SportClub", "color_map": "#003366" }, "geometry": { "type": "Point", "coordinates": [ -59.0207054, -34.0967361, 0.0 ] } },
{ "type": "Feature", "properties": { "nombre": "Familia SportClub Natatorio Acuática", "direccion_std": "nan", "plan": "FAMILIA SC", "precio": null, "cadena": "SportClub", "color_map": "#003366" }, "geometry": { "type": "Point", "coordinates": [ -58.5712788, -34.5858711, 0.0 ] } },
{ "type": "Feature", "properties": { "nombre": "Familia SportClub Training Point\n", "direccion_std": "nan", "plan": "FAMILIA SC", "precio": null, "cadena": "SportClub", "color_map": "#003366" }, "geometry": { "type": "Point", "coordinates": [ -58.4983415, -34.6277705, 0.0 ] } },
{ "type": "Feature", "properties": { "nombre": "Familia SportClub Espacio Ragolia\n", "direccion_std": "nan", "plan": "PLUS", "precio": null, "cadena": "SportClub", "color_map": "#003366" }, "geometry": { "type": "Point", "coordinates": [ -58.618835, -34.6543245, 0.0 ] } },
{ "type": "Feature", "properties": { "nombre": "Familia SportClub Crossculture\n", "direccion_std": "nan", "plan": "FAMILIA SC", "precio": null, "cadena": "SportClub", "color_map": "#003366" }, "geometry": { "type": "Point", "coordinates": [ -58.5553792, -34.4978164, 0.0 ] } },
{ "type": "Feature", "properties": { "nombre": "Familia SportClub Area Gym\n", "direccion_std": "nan", "plan": "FAMILIA SC", "precio": null, "cadena": "SportClub", "color_map": "#003366" }, "geometry": { "type": "Point", "coordinates": [ -58.5635674, -34.43667, 0.0 ] } },
{ "type": "Feature", "properties": { "nombre": "Familia SportClub Kuyen Pilates Almagro", "direccion_std": "nan", "plan": "FAMILIA SC", "precio": null, "cadena": "SportClub", "color_map": "#003366" }, "geometry": { "type": "Point", "coordinates": [ -58.4259059, -34.6037613, 0.0 ] } },
{ "type": "Feature", "properties": { "nombre": "CLUB Atlético Estudiantes Sede Central (CAE)", "direccion_std": "nan", "plan": "OTRO/NO ESPECIFICADO", "precio": null, "cadena": "SportClub", "color_map": "#003366" }, "geometry": { "type": "Point", "coordinates": [ -60.5372966, -31.7199324, 0.0 ] } },
{ "type": "Feature", "properties": { "nombre": "Familia SportClub MOOD Yoga Sala Agua", "direccion_std": "nan", "plan": "FAMILIA SC", "precio": null, "cadena": "SportClub", "color_map": "#003366" }, "geometry": { "type": "Point", "coordinates": [ -58.4430409, -34.581735, 0.0 ] } },
{ "type": "Feature", "properties": { "nombre": "Familia SportClub Action Fitness\n", "direccion_std": "nan", "plan": "FAMILIA SC", "precio": null, "cadena": "SportClub", "color_map": "#003366" }, "geometry": { "type": "Point", "coordinates": [ -58.4757412, -34.6081173, 0.0 ] } },
{ "type": "Feature", "properties": { "nombre": "Familia SportClub Ova Gym Granadero Baigorria", "direccion_std": "nan", "plan": "FAMILIA SC", "precio": null, "cadena": "SportClub", "color_map": "#003366" }, "geometry": { "type": "Point", "coordinates": [ -60.7033768, -32.8570482, 0.0 ] } },
{ "type": "Feature", "properties": { "nombre": "Familia SportClub Espacio Púlsar\n", "direccion_std": "nan", "plan": "FAMILIA SC", "precio": null, "cadena": "SportClub", "color_map": "#003366" }, "geometry": { "type": "Point", "coordinates": [ -71.3440214, -40.1531757, 0.0 ] } },
{ "type": "Feature", "properties": { "nombre": "Familia SportClub Natatorio Sudestada", "direccion_std": "nan", "plan": "FAMILIA SC", "precio": null, "cadena": "SportClub", "color_map": "#003366" }, "geometry": { "type": "Point", "coordinates": [ -58.5280526, -34.6374476, 0.0 ] } },
{ "type": "Feature", "properties": { "nombre": "Familia SportClub Titanium Concepción", "direccion_std": "nan", "plan": "FAMILIA SC", "precio": null, "cadena": "SportClub", "color_map": "#003366" }, "geometry": { "type": "Point", "coordinates": [ -58.2381106, -32.4803099, 0.0 ] } },
{ "type": "Feature", "properties": { "nombre": "Familia SportClub Gimnasio Soleil Resistencia", "direccion_std": "nan", "plan": "FAMILIA SC", "precio": null, "cadena": "SportClub", "color_map": "#003366" }, "geometry": { "type": "Point", "coordinates": [ -58.9804243, -27.4553605, 0.0 ] } },
{ "type": "Feature", "properties": { "nombre": "Familia SportClub Ukraine San Vicente\n", "direccion_std": "nan", "plan": "FAMILIA SC", "precio": null, "cadena": "SportClub", "color_map": "#003366" }, "geometry": { "type": "Point", "coordinates": [ -58.4264084, -35.0233377, 0.0 ] } },
{ "type": "Feature", "properties": { "nombre": "Familia SportClub Luxma Catriel", "direccion_std": "nan", "plan": "FAMILIA SC", "precio": null, "cadena": "SportClub", "color_map": "#003366" }, "geometry": { "type": "Point", "coordinates": [ -67.7873886, -37.8777764, 0.0 ] } },
{ "type": "Feature", "properties": { "nombre": "Familia SportClub Under Gym Puerto Madryn", "direccion_std": "nan", "plan": "FAMILIA SC", "precio": null, "cadena": "SportClub", "color_map": "#003366" }, "geometry": { "type": "Point", "coordinates": [ -65.0402702, -42.7679307, 0.0 ] } },
{ "type": "Feature", "properties": { "nombre": "Familia SportClub BOX N FIT Troncos del Talar", "direccion_std": "nan", "plan": "FAMILIA SC", "precio": null, "cadena": "SportClub", "color_map": "#003366" }, "geometry": { "type": "Point", "coordinates": [ -58.6127861, -34.46341, 0.0 ] } },
{ "type": "Feature", "properties": { "nombre": "Familia SportClub Santosha Club de Yoga\n", "direccion_std": "nan", "plan": "FAMILIA SC", "precio": null, "cadena": "SportClub", "color_map": "#003366" }, "geometry": { "type": "Point", "coordinates": [ -65.419138, -24.7792308, 0.0 ] } },
{ "type": "Feature", "properties": { "nombre": "Familia SportClub Fitness Center Caballito", "direccion_std": "nan", "plan": "FAMILIA SC", "precio": null, "cadena": "SportClub", "color_map": "#003366" }, "geometry": { "type": "Point", "coordinates": [ -58.4492827, -34.6236146, 0.0 ] } },
{ "type": "Feature", "properties": { "nombre": "Familia SportClub Resset Mdq\n", "direccion_std": "nan", "plan": "FAMILIA SC", "precio": null, "cadena": "SportClub", "color_map": "#003366" }, "geometry": { "type": "Point", "coordinates": [ -57.5534143, -38.0286059, 0.0 ] } },
{ "type": "Feature", "properties": { "nombre": "Familia SportClub Club Center Fight Academy", "direccion_std": "nan", "plan": "FAMILIA SC", "precio": null, "cadena": "SportClub", "color_map": "#003366" }, "geometry": { "type": "Point", "coordinates": [ -58.3899432, -34.6229279, 0.0 ] } },
{ "type": "Feature", "properties": { "nombre": "Familia SportClub Aristides VIP Mendoza", "direccion_std": "nan", "plan": "FAMILIA SC", "precio": null, "cadena": "SportClub", "color_map": "#003366" }, "geometry": { "type": "Point", "coordinates": [ -68.8539284, -32.8926501, 0.0 ] } },
{ "type": "Feature", "properties": { "nombre": "Familia SportClub Espacio Maga Yoga Guaymallén", "direccion_std": "nan", "plan": "FAMILIA SC", "precio": null, "cadena": "SportClub", "color_map": "#003366" }, "geometry": { "type": "Point", "coordinates": [ -68.8082264, -32.9082693, 0.0 ] } },
{ "type": "Feature", "properties": { "nombre": "Familia SportClub Focus Room Ovidio Lagos", "direccion_std": "nan", "plan": "FAMILIA SC", "precio": null, "cadena": "SportClub", "color_map": "#003366" }, "geometry": { "type": "Point", "coordinates": [ -60.6618186, -32.9441818, 0.0 ] } },
{ "type": "Feature", "properties": { "nombre": "Familia SportClub Gimnasio Trento La Plata", "direccion_std": "nan", "plan": "FAMILIA SC", "precio": null, "cadena": "SportClub", "color_map": "#003366" }, "geometry": { "type": "Point", "coordinates": [ -57.9215734, -34.9262642, 0.0 ] } },
{ "type": "Feature", "properties": { "nombre": "Familia SportClub Centro Fit Evolution Pehuajó", "direccion_std": "nan", "plan": "FAMILIA SC", "precio": null, "cadena": "SportClub", "color_map": "#003366" }, "geometry": { "type": "Point", "coordinates": [ -61.8840517, -35.8141357, 0.0 ] } },
{ "type": "Feature", "properties": { "nombre": "Familia SportClub Fenix Fitness Sede Central", "direccion_std": "nan", "plan": "FAMILIA SC", "precio": null, "cadena": "SportClub", "color_map": "#003366" }, "geometry": { "type": "Point", "coordinates": [ -63.6197125, -31.3332865, 0.0 ] } },
{ "type": "Feature", "properties": { "nombre": "Familia SportClub Fénix Fitness Sede Sur", "direccion_std": "nan", "plan": "FAMILIA SC", "precio": null, "cadena": "SportClub", "color_map": "#003366" }, "geometry": { "type": "Point", "coordinates": [ -63.6249566, -31.3317641, 0.0 ] } },
{ "type": "Feature", "properties": { "nombre": "Familia SportClub Gimnasio Oxígeno Necochea", "direccion_std": "nan", "plan": "FAMILIA SC", "precio": null, "cadena": "SportClub", "color_map": "#003366" }, "geometry": { "type": "Point", "coordinates": [ -58.7474831, -38.5608959, 0.0 ] } },
{ "type": "Feature", "properties": { "nombre": "Familia SportClub A Todo Ritmo Villa Crespo", "direccion_std": "nan", "plan": "FAMILIA SC", "precio": null, "cadena": "SportClub", "color_map": "#003366" }, "geometry": { "type": "Point", "coordinates": [ -58.438029, -34.6002601, 0.0 ] } },
{ "type": "Feature", "properties": { "nombre": "Familia SportClub Impulso Training Maipú", "direccion_std": "nan", "plan": "FAMILIA SC", "precio": null, "cadena": "SportClub", "color_map": "#003366" }, "geometry": { "type": "Point", "coordinates": [ -68.785899, -32.9673669, 0.0 ] } },
{ "type": "Feature", "properties": { "nombre": "Familia SportClub MB Calistenia Escobar", "direccion_std": "nan", "plan": "FAMILIA SC", "precio": null, "cadena": "SportClub", "color_map": "#003366" }, "geometry": { "type": "Point", "coordinates": [ -58.7916431, -34.3475044, 0.0 ] } },
{ "type": "Feature", "properties": { "nombre": "Familia SportClub MOOD Yoga Sala Tierra", "direccion_std": "nan", "plan": "FAMILIA SC", "precio": null, "cadena": "SportClub", "color_map": "#003366" }, "geometry": { "type": "Point", "coordinates": [ -58.4275788, -34.5826007, 0.0 ] } },
{ "type": "Feature", "properties": { "nombre": "Familia SportClub Blackbull Junín", "direccion_std": "nan", "plan": "FAMILIA SC", "precio": null, "cadena": "SportClub", "color_map": "#003366" }, "geometry": { "type": "Point", "coordinates": [ -60.9565303, -34.5977006, 0.0 ] } },
{ "type": "Feature", "properties": { "nombre": "Familia SportClub Serendipia Campana", "direccion_std": "nan", "plan": "FAMILIA SC", "precio": null, "cadena": "SportClub", "color_map": "#003366" }, "geometry": { "type": "Point", "coordinates": [ -58.9470785, -34.190427, 0.0 ] } },
{ "type": "Feature", "properties": { "nombre": "Familia SportClub Entrenate Indoor Recoleta", "direccion_std": "nan", "plan": "FAMILIA SC", "precio": null, "cadena": "SportClub", "color_map": "#003366" }, "geometry": { "type": "Point", "coordinates": [ -58.4127654, -34.594697, 0.0 ] } },
{ "type": "Feature", "properties": { "nombre": "Familia SportClub MioCorpo Del Viso\n", "direccion_std": "nan", "plan": "FAMILIA SC", "precio": null, "cadena": "SportClub", "color_map": "#003366" }, "geometry": { "type": "Point", "coordinates": [ -58.7894263, -34.4384738, 0.0 ] } },
{ "type": "Feature", "properties": { "nombre": "Familia SportClub Miro Team Neuquén", "direccion_std": "nan", "plan": "FAMILIA SC", "precio": null, "cadena": "SportClub", "color_map": "#003366" }, "geometry": { "type": "Point", "coordinates": [ -68.0425323, -38.9601612, 0.0 ] } },
{ "type": "Feature", "properties": { "nombre": "Familia SportClub Vikingo La Pampa", "direccion_std": "nan", "plan": "FAMILIA SC", "precio": null, "cadena": "SportClub", "color_map": "#003366" }, "geometry": { "type": "Point", "coordinates": [ -64.282401, -36.6282673, 0.0 ] } },
{ "type": "Feature", "properties": { "nombre": "Familia SportClub Bive Pilates Liniers", "direccion_std": "nan", "plan": "FAMILIA SC", "precio": null, "cadena": "SportClub", "color_map": "#003366" }, "geometry": { "type": "Point", "coordinates": [ -58.5163635, -34.6393852, 0.0 ] } },
{ "type": "Feature", "properties": { "nombre": "Familia SportClub Galatas Cross Posadas", "direccion_std": "nan", "plan": "FAMILIA SC", "precio": null, "cadena": "SportClub", "color_map": "#003366" }, "geometry": { "type": "Point", "coordinates": [ -55.8965881, -27.3693972, 0.0 ] } },
{ "type": "Feature", "properties": { "nombre": "CLUB Santa Barbara Hockey La Plata", "direccion_std": "nan", "plan": "OTRO/NO ESPECIFICADO", "precio": null, "cadena": "SportClub", "color_map": "#003366" }, "geometry": { "type": "Point", "coordinates": [ -58.023185, -34.8763474, 0.0 ] } },
{ "type": "Feature", "properties": { "nombre": "CLUB Sociedad Sportiva Bahía Blanca", "direccion_std": "nan", "plan": "OTRO/NO ESPECIFICADO", "precio": null, "cadena": "SportClub", "color_map": "#003366" }, "geometry": { "type": "Point", "coordinates": [ -58.375331, -34.5973929, 0.0 ] } },
{ "type": "Feature", "properties": { "nombre": "Familia SportClub 4Life Ramos Mejía", "direccion_std": "nan", "plan": "FAMILIA SC", "precio": null, "cadena": "SportClub", "color_map": "#003366" }, "geometry": { "type": "Point", "coordinates": [ -58.5752673, -34.6424241, 0.0 ] } },
{ "type": "Feature", "properties": { "nombre": "Familia SportClub Afrika Gym Benavidez", "direccion_std": "nan", "plan": "FAMILIA SC", "precio": null, "cadena": "SportClub", "color_map": "#003366" }, "geometry": { "type": "Point", "coordinates": [ -58.6954831, -34.4152889, 0.0 ] } },
{ "type": "Feature", "properties": { "nombre": "Familia SportClub Altreno Point Morón", "direccion_std": "nan", "plan": "FAMILIA SC", "precio": null, "cadena": "SportClub", "color_map": "#003366" }, "geometry": { "type": "Point", "coordinates": [ -58.6187868, -34.6576282, 0.0 ] } },
{ "type": "Feature", "properties": { "nombre": "Familia SportClub Baco Fitness Villa del Parque", "direccion_std": "nan", "plan": "FAMILIA SC", "precio": null, "cadena": "SportClub", "color_map": "#003366" }, "geometry": { "type": "Point", "coordinates": [ -58.4890282, -34.6029871, 0.0 ] } },
{ "type": "Feature", "properties": { "nombre": "Familia SportClub Bull Fitness San Fernando", "direccion_std": "nan", "plan": "FAMILIA SC", "precio": null, "cadena": "SportClub", "color_map": "#003366" }, "geometry": { "type": "Point", "coordinates": [ -58.5585926, -34.4370042, 0.0 ] } },
{ "type": "Feature", "properties": { "nombre": "Familia SportClub Divisadero Club de Mar Cariló", "direccion_std": "nan", "plan": "FAMILIA SC", "precio": null, "cadena": "SportClub", "color_map": "#003366" }, "geometry": { "type": "Point", "coordinates": [ -56.8984304, -37.1741166, 0.0 ] } },
{ "type": "Feature", "properties": { "nombre": "Familia SportClub Endorfine Club Boulogne", "direccion_std": "nan", "plan": "FAMILIA SC", "precio": null, "cadena": "SportClub", "color_map": "#003366" }, "geometry": { "type": "Point", "coordinates": [ -58.5593479, -34.4982633, 0.0 ] } },
{ "type": "Feature", "properties": { "nombre": "Familia SportClub Evolution Liniers Shopping", "direccion_std": "nan", "plan": "FAMILIA SC", "precio": null, "cadena": "SportClub", "color_map": "#003366" }, "geometry": { "type": "Point", "coordinates": [ -58.5268895, -34.6402006, 0.0 ] } },
{ "type": "Feature", "properties": { "nombre": "Familia SportClub Evolution Sport Lugano", "direccion_std": "nan", "plan": "FAMILIA SC", "precio": null, "cadena": "SportClub", "color_map": "#003366" }, "geometry": { "type": "Point", "coordinates": [ -58.5024132, -34.6671582, 0.0 ] } },
{ "type": "Feature", "properties": { "nombre": "Familia SportClub Evolution Sport Monte Grande", "direccion_std": "nan", "plan": "FAMILIA SC", "precio": null, "cadena": "SportClub", "color_map": "#003366" }, "geometry": { "type": "Point", "coordinates": [ -58.4699621, -34.8162372, 0.0 ] } },
{ "type": "Feature", "properties": { "nombre": "Familia SportClub Evolution Sport Sede 7", "direccion_std": "nan", "plan": "FAMILIA SC", "precio": null, "cadena": "SportClub", "color_map": "#003366" }, "geometry": { "type": "Point", "coordinates": [ -58.5027301, -34.646034, 0.0 ] } },
{ "type": "Feature", "properties": { "nombre": "Familia SportClub Evolution Sport Villa Luro", "direccion_std": "nan", "plan": "FAMILIA SC", "precio": null, "cadena": "SportClub", "color_map": "#003366" }, "geometry": { "type": "Point", "coordinates": [ -58.5138441, -34.6422736, 0.0 ] } },
{ "type": "Feature", "properties": { "nombre": "Familia SportClub Gimnasio Club Castelar", "direccion_std": "nan", "plan": "FAMILIA SC", "precio": null, "cadena": "SportClub", "color_map": "#003366" }, "geometry": { "type": "Point", "coordinates": [ -58.643004, -34.6577259, 0.0 ] } },
{ "type": "Feature", "properties": { "nombre": "Familia SportClub Mordor Muñiz", "direccion_std": "nan", "plan": "FAMILIA SC", "precio": null, "cadena": "SportClub", "color_map": "#003366" }, "geometry": { "type": "Point", "coordinates": [ -58.6996173, -34.5505629, 0.0 ] } },
{ "type": "Feature", "properties": { "nombre": "Familia SportClub PowerFit Congreso", "direccion_std": "nan", "plan": "FAMILIA SC", "precio": null, "cadena": "SportClub", "color_map": "#003366" }, "geometry": { "type": "Point", "coordinates": [ -58.3952016, -34.6080982, 0.0 ] } },
{ "type": "Feature", "properties": { "nombre": "Familia SportClub PowerFit Villa Luro", "direccion_std": "nan", "plan": "FAMILIA SC", "precio": null, "cadena": "SportClub", "color_map": "#003366" }, "geometry": { "type": "Point", "coordinates": [ -58.495378, -34.6426864, 0.0 ] } },
{ "type": "Feature", "properties": { "nombre": "Familia SportClub Skilful Black Santa Fe", "direccion_std": "nan", "plan": "FAMILIA SC", "precio": null, "cadena": "SportClub", "color_map": "#003366" }, "geometry": { "type": "Point", "coordinates": [ -60.7062736, -31.6431921, 0.0 ] } },
{ "type": "Feature", "properties": { "nombre": "Familia SportClub Skilful Candioti", "direccion_std": "nan", "plan": "FAMILIA SC", "precio": null, "cadena": "SportClub", "color_map": "#003366" }, "geometry": { "type": "Point", "coordinates": [ -60.6948795, -31.6308711, 0.0 ] } },
{ "type": "Feature", "properties": { "nombre": "Familia SportClub Sports Academy Colegiales", "direccion_std": "nan", "plan": "FAMILIA SC", "precio": null, "cadena": "SportClub", "color_map": "#003366" }, "geometry": { "type": "Point", "coordinates": [ -58.4475272, -34.5721723, 0.0 ] } },
{ "type": "Feature", "properties": { "nombre": "Familia SportClub Xfittowers Moron", "direccion_std": "nan", "plan": "FAMILIA SC", "precio": null, "cadena": "SportClub", "color_map": "#003366" }, "geometry": { "type": "Point", "coordinates": [ -58.6010286, -34.6356338, 0.0 ] } },
{ "type": "Feature", "properties": { "nombre": "Familia SportClub Zona Fit Allen Río Negro", "direccion_std": "nan", "plan": "FAMILIA SC", "precio": null, "cadena": "SportClub", "color_map": "#003366" }, "geometry": { "type": "Point", "coordinates": [ -67.8266361, -38.9778066, 0.0 ] } },
{ "type": "Feature", "properties": { "nombre": "Familia SportClub Everfit Migueletes", "direccion_std": "nan", "plan": "FAMILIA SC", "precio": null, "cadena": "SportClub", "color_map": "#003366" }, "geometry": { "type": "Point", "coordinates": [ -58.4462749, -34.556815, 0.0 ] } },
{ "type": "Feature", "properties": { "nombre": "Familia SportClub La Redonda MDQ", "direccion_std": "nan", "plan": "FAMILIA SC", "precio": null, "cadena": "SportClub", "color_map": "#003366" }, "geometry": { "type": "Point", "coordinates": [ -57.5378509, -38.0279963, 0.0 ] } },
{ "type": "Feature", "properties": { "nombre": "Familia SportClub Onaqua Natatorio Lanús", "direccion_std": "nan", "plan": "FAMILIA SC", "precio": null, "cadena": "SportClub", "color_map": "#003366" }, "geometry": { "type": "Point", "coordinates": [ -58.3957031, -34.7117246, 0.0 ] } },
{ "type": "Feature", "properties": { "nombre": "Familia SportClub Gimnasio ATP", "direccion_std": "nan", "plan": "FAMILIA SC", "precio": null, "cadena": "SportClub", "color_map": "#003366" }, "geometry": { "type": "Point", "coordinates": [ -71.3500435, -40.1537832, 0.0 ] } },
{ "type": "Feature", "properties": { "nombre": "Familia SportClub Ranax", "direccion_std": "nan", "plan": "FAMILIA SC", "precio": null, "cadena": "SportClub", "color_map": "#003366" }, "geometry": { "type": "Point", "coordinates": [ -58.6249911, -34.457336, 0.0 ] } },
{ "type": "Feature", "properties": { "nombre": "Familia SportClub Luxus Wellness Fitness San Lzo", "direccion_std": "nan", "plan": "FAMILIA SC", "precio": null, "cadena": "SportClub", "color_map": "#003366" }, "geometry": { "type": "Point", "coordinates": [ -60.732668, -32.7469169, 0.0 ] } },
{ "type": "Feature", "properties": { "nombre": "Familia SportClub Giants en Trelew", "direccion_std": "nan", "plan": "FAMILIA SC", "precio": null, "cadena": "SportClub", "color_map": "#003366" }, "geometry": { "type": "Point", "coordinates": [ -65.3065831, -43.2696602, 0.0 ] } },
{ "type": "Feature", "properties": { "nombre": "Familia SportClub La Martineta Gym", "direccion_std": "nan", "plan": "FAMILIA SC", "precio": null, "cadena": "SportClub", "color_map": "#003366" }, "geometry": { "type": "Point", "coordinates": [ -65.0381515, -42.7664319, 0.0 ] } },
{ "type": "Feature", "properties": { "nombre": "Familia SportClub Patos Gym Villa Lugano", "direccion_std": "nan", "plan": "FAMILIA SC", "precio": null, "cadena": "SportClub", "color_map": "#003366" }, "geometry": { "type": "Point", "coordinates": [ -58.4818988, -34.6689795, 0.0 ] } },
{ "type": "Feature", "properties": { "nombre": "Familia SportClub Quality Gym\n", "direccion_std": "nan", "plan": "FAMILIA SC", "precio": null, "cadena": "SportClub", "color_map": "#003366" }, "geometry": { "type": "Point", "coordinates": [ -64.1865429, -31.4227143, 0.0 ] } },
{ "type": "Feature", "properties": { "nombre": "Familia SportClub CF Warriors Maipu", "direccion_std": "nan", "plan": "FAMILIA SC", "precio": null, "cadena": "SportClub", "color_map": "#003366" }, "geometry": { "type": "Point", "coordinates": [ -68.791137, -32.9870844, 0.0 ] } },
{ "type": "Feature", "properties": { "nombre": "Familia SportClub Suyai Fitness Club Parque Chas", "direccion_std": "nan", "plan": "FAMILIA SC", "precio": null, "cadena": "SportClub", "color_map": "#003366" }, "geometry": { "type": "Point", "coordinates": [ -58.4799224, -34.5852777, 0.0 ] } },
{ "type": "Feature", "properties": { "nombre": "CLUB Atlético Estudiantes de Paraná Sede Central", "direccion_std": "nan", "plan": "OTRO/NO ESPECIFICADO", "precio": null, "cadena": "SportClub", "color_map": "#003366" }, "geometry": { "type": "Point", "coordinates": [ -60.5362069, -31.7180235, 0.0 ] } },
{ "type": "Feature", "properties": { "nombre": "Familia SportClub Athenas Trainning Benavidez", "direccion_std": "nan", "plan": "FAMILIA SC", "precio": null, "cadena": "SportClub", "color_map": "#003366" }, "geometry": { "type": "Point", "coordinates": [ -58.6938407, -34.4140484, 0.0 ] } },
{ "type": "Feature", "properties": { "nombre": "Familia SportClub Bitonik Entretraining Mendoza", "direccion_std": "nan", "plan": "FAMILIA SC", "precio": null, "cadena": "SportClub", "color_map": "#003366" }, "geometry": { "type": "Point", "coordinates": [ -68.8443784, -32.9490269, 0.0 ] } },
{ "type": "Feature", "properties": { "nombre": "Familia SportClub Catapumba Fit Temperley", "direccion_std": "nan", "plan": "FAMILIA SC", "precio": null, "cadena": "SportClub", "color_map": "#003366" }, "geometry": { "type": "Point", "coordinates": [ -58.3981383, -34.7682964, 0.0 ] } },
{ "type": "Feature", "properties": { "nombre": "Familia SportClub Queens Pole Dance and Fitness", "direccion_std": "nan", "plan": "FAMILIA SC", "precio": null, "cadena": "SportClub", "color_map": "#003366" }, "geometry": { "type": "Point", "coordinates": [ -58.5097896, -34.5227631, 0.0 ] } },
{ "type": "Feature", "properties": { "nombre": "Familia SportClub Natatorio Splash Ciudad Evita\n", "direccion_std": "nan", "plan": "FAMILIA SC", "precio": null, "cadena": "SportClub", "color_map": "#003366" }, "geometry": { "type": "Point", "coordinates": [ -58.5276906, -34.734389, 0.0 ] } },
{ "type": "Feature", "properties": { "nombre": "Familia SportClub Melher Don Torcuato", "direccion_std": "nan", "plan": "FAMILIA SC", "precio": null, "cadena": "SportClub", "color_map": "#003366" }, "geometry": { "type": "Point", "coordinates": [ -58.6372478, -34.4968221, 0.0 ] } },
{ "type": "Feature", "properties": { "nombre": "Familia SportClub Official Spinning Lanus", "direccion_std": "nan", "plan": "FAMILIA SC", "precio": null, "cadena": "SportClub", "color_map": "#003366" }, "geometry": { "type": "Point", "coordinates": [ -58.3959594, -34.7082675, 0.0 ] } },
{ "type": "Feature", "properties": { "nombre": "Familia SportClub SportLife Banfield", "direccion_std": "nan", "plan": "FAMILIA SC", "precio": null, "cadena": "SportClub", "color_map": "#003366" }, "geometry": { "type": "Point", "coordinates": [ -58.3934395, -34.7435432, 0.0 ] } },
{ "type": "Feature", "properties": { "nombre": "Familia SportClub Magnum Almagro", "direccion_std": "nan", "plan": "FAMILIA SC", "precio": null, "cadena": "SportClub", "color_map": "#003366" }, "geometry": { "type": "Point", "coordinates": [ -58.4261768, -34.60573, 0.0 ] } },
{ "type": "Feature", "properties": { "nombre": "Familia SportClub Omega Fitness Quilmes", "direccion_std": "nan", "plan": "FAMILIA SC", "precio": null, "cadena": "SportClub", "color_map": "#003366" }, "geometry": { "type": "Point", "coordinates": [ -58.2599832, -34.7210946, 0.0 ] } },
{ "type": "Feature", "properties": { "nombre": "Familia SportClub Tres Fitness Club", "direccion_std": "nan", "plan": "FAMILIA SC", "precio": null, "cadena": "SportClub", "color_map": "#003366" }, "geometry": { "type": "Point", "coordinates": [ -68.8330534, -32.8983155, 0.0 ] } },
{ "type": "Feature", "properties": { "nombre": "Familia SportClub Activarte Sport Bella Vista", "direccion_std": "nan", "plan": "FAMILIA SC", "precio": null, "cadena": "SportClub", "color_map": "#003366" }, "geometry": { "type": "Point", "coordinates": [ -58.693241, -34.5679011, 0.0 ] } },
{ "type": "Feature", "properties": { "nombre": "Familia SportClub Instituto Anahi Ramos MDQ", "direccion_std": "nan", "plan": "FAMILIA SC", "precio": null, "cadena": "SportClub", "color_map": "#003366" },